<?xml version="1.0"?>
<world>
	<country code="US" name="United States">
		<city state="&nbsp;Alabama" 	latitude="32.75" longitude="-86.75"/>
		<city state="&nbsp;Alaska" 	latitude="64.00" longitude="-150.00"/>
		<city state="&nbsp;Arizona"	latitude="34.50" longitude="-111.50"/>
		<city state="&nbsp;Arkansas"	latitude="34.75" longitude="-92.50"/>
		<city state="&nbsp;California"	latitude="37.25" longitude="-119.75"/>
		<city state="&nbsp;Colorado"	latitude="39.00" longitude="-105.50"/>
		<city state="&nbsp;Connecticut"	latitude="41.66" longitude="-72.66"/>
		<city state="&nbsp;Delaware"	latitude="39.00" longitude="-75.50"/>
		<city state="&nbsp;Florida"	latitude="28.75" longitude="-82.50"/>
		<city state="&nbsp;Georgia"	latitude="32.75" longitude="-83.50"/>
		<city state="&nbsp;Hawaii" 	latitude="20.75" longitude="-156.50"/>
		<city state="&nbsp;Idaho"		latitude="44.50" longitude="-114.25"/>
		<city state="&nbsp;Illinois"	latitude="40.00" longitude="-89.25"/>
		<city state="&nbsp;Indiana" 	latitude="40.00" longitude="-86.25"/>
		<city state="&nbsp;Iowa"		latitude="42.00" longitude="-93.50"/>
		<city state="&nbsp;Kansas"		latitude="38.50" longitude="-98.50"/>
		<city state="&nbsp;Kentucky"	latitude="38.20" longitude="-84.87"/>
		<city state="&nbsp;Louisiana"	latitude="31.00" longitude="-92.00"/>
		<city state="&nbsp;Maine"		latitude="45.50" longitude="-69.25"/>
		<city state="&nbsp;Maryland"	latitude="39.00" longitude="-76.75"/>
		<city state="&nbsp;Massachusetts"	latitude="42.35" longitude="-71.06"/>
		<city state="&nbsp;Michigan"	latitude="44.25" longitude="-85.50"/>
		<city state="&nbsp;Minnesota"	latitude="46.25" longitude="-94.25"/>
		<city state="&nbsp;Mississippi"	latitude="32.75" longitude="-89.75"/>
		<city state="&nbsp;Missouri"	latitude="38.25" longitude="-92.50"/>
		<city state="&nbsp;Montana" 	latitude="47.00" longitude="-109.75"/>
		<city state="&nbsp;Nebraska"	latitude="41.50" longitude="-99.75"/>
		<city state="&nbsp;Nevada"		latitude="39.25" longitude="-116.75"/>
		<city state="&nbsp;New Hampshire"	latitude="43.66" longitude="-71.50"/>
		<city state="&nbsp;New Jersey"	latitude="40.16" longitude="-74.50"/>
		<city state="&nbsp;New Mexico"	latitude="34.50" longitude="-106.00"/>
		<city state="&nbsp;New York"	latitude="43.00" longitude="-75.50"/>
		<city state="&nbsp;North Carolina"	latitude="35.50" longitude="-80.00"/>
		<city state="&nbsp;North Dakota"	latitude="47.50" longitude="-100.00"/>
		<city state="&nbsp;Ohio"		latitude="40.25" longitude="-83.00"/>
		<city state="&nbsp;Oklahoma"	latitude="35.50" longitude="-97.50"/>
		<city state="&nbsp;Oregon"		latitude="44.00" longitude="-120.50"/>
		<city state="&nbsp;Pennsylvania"	latitude="40.27" longitude="-76.88"/>
		<city state="&nbsp;Rhode Island"	latitude="41.75" longitude="-71.50"/>
		<city state="&nbsp;South Carolina"	latitude="34.00" longitude="-81.00"/>
		<city state="&nbsp;South Dakota"	latitude="44.50" longitude="-100.25"/>
		<city state="&nbsp;Tennessee"	latitude="35.75" longitude="-86.25"/>
		<city state="&nbsp;Texas"		latitude="31.25" longitude="-99.25"/>
		<city state="&nbsp;Utah"		latitude="39.25" longitude="-111.75"/>
		<city state="&nbsp;Vermont"	latitude="44.00" longitude="-72.75"/>
		<city state="&nbsp;Virginia"	latitude="37.55" longitude="-77.46"/>
		<city state="&nbsp;Washington"	latitude="47.50" longitude="-120.50"/>
		<city state="&nbsp;West Virginia"	latitude="38.50" longitude="-80.50"/>
		<city state="&nbsp;Wisconsin"	latitude="44.50" longitude="-90.00"/>
		<city state="&nbsp;Wyoming"	latitude="43.00" longitude="-107.50"/>
		<city state="&nbsp;Puerto Rico"	latitude="37.99816" longitude="-97.99817"/>
		<city state="&nbsp;Minor Islands"	latitude="0" longitude="-176.5"/>
		<city state="&nbsp;District of Columbia" latitude="38.895" longitude="-77.03666"/>
		<city name="Abbott Park"	state="Illinois"	latitude="42.31926" longitude="-87.84771"/>
		<city name="Aberdeen Proving Ground" state="Maryland"	latitude="39.47345" longitude="-76.14080"/>
		<city name="Aberdeen"		state="South Dakota"	latitude="46.22477" longitude="-111.14312"/>
		<city name="Abilene"		state="Texas"		latitude="32.42752" longitude="-99.74862"/>
		<city name="Acton"		state="Massachusetts"	latitude="42.47890" longitude="-71.44954"/>
		<city name="Ada"		state="Michigan"	latitude="42.95779" longitude="-85.47522"/>
		<city name="Adams"		state="Massachusetts"	latitude="42.61926" longitude="-73.11743"/>
		<city name="Addison"		state="Texas"		latitude="37.99816" longitude="-97.99817"/>
		<city name="Adelphi"		state="Maryland"	latitude="38.98899" longitude="-76.96514"/>
		<city name="Adrian"		state="Michigan"	latitude="41.89816" longitude="-84.03852"/>
		<city name="Agawam"		state="Massachusetts"	latitude="42.06880" longitude="-72.61651"/>
		<city name="Agoura Hills"	state="California"	latitude="34.15871" longitude="-118.75596"/>
		<city name="Aiken"		state="South Carolina"	latitude="33.54770" longitude="-81.71560"/>
		<city name="Akron"		state="Ohio"		latitude="40.73945" longitude="-83.36697"/>
		<city name="Alameda"		state="California"	latitude="37.87981" longitude="-110.12477"/>
		<city name="Alamogordo"		state="New Mexico"	latitude="32.88990" longitude="-105.94679"/>
		<city name="Alamosa"		state="Colorado"	latitude="37.46972" longitude="-105.87523"/>
		<city name="Albany"		state="New York"	latitude="42.33302" longitude="-82.96514"/>
		<city name="Albert Lea"		state="Minnesota"	latitude="43.64862" longitude="-93.36880"/>
		<city name="Albertson"		state="New York"	latitude="40.76972" longitude="-73.64587"/>
		<city name="Albuquerque"	state="New Mexico"	latitude="35.09999" longitude="-106.57982"/>
		<city name="Alexandria"		state="Louisiana"	latitude="37.19449" longitude="-80.70826"/>
		<city name="Alfred"		state="New York"	latitude="42.25871" longitude="-77.78532"/>
		<city name="Alhambra"		state="California"	latitude="34.07890" longitude="-118.13394"/>
		<city name="Aliso Viejo"	state="California"	latitude="33.56972" longitude="-117.70459"/>
		<city name="Allen"		state="Texas"		latitude="33.08807" longitude="-96.64954"/>
		<city name="Allen Park"		state="Michigan"	latitude="42.24770" longitude="-83.20733"/>
		<city name="Allendale"		state="Michigan"	latitude="42.96880" longitude="-85.91559"/>
		<city name="Allendale"		state="New Jersey"	latitude="40.95963" longitude="-74.12477"/>
		<city name="Allentown"		state="Pennsylvania"	latitude="40.58807" longitude="-75.48990"/>
		<city name="Allison Park"	state="Pennsylvania"	latitude="40.56880" longitude="-79.96514"/>
		<city name="Allston"		state="Massachusetts"	latitude="42.34954" longitude="-71.12477"/>
		<city name="Alma"		state="Michigan"	latitude="43.37890" longitude="-84.65504"/>
		<city name="Aloha"		state="Oregon"		latitude="45.51743" longitude="-122.85688"/>
		<city name="Alpharetta"		state="Georgia"		latitude="35.38073" longitude="-88.84404"/>
		<city name="Alsip"		state="Illinois"	latitude="41.66972" longitude="-87.72660"/>
		<city name="Altadena"		state="California"	latitude="34.18899" longitude="-118.13945"/>
		<city name="Altamonte Springs"	state="Florida"		latitude="28.64312" longitude="-81.37431"/>
		<city name="Altanta"		state="Georgia"		latitude="33.92752" longitude="-84.32476"/>
		<city name="Altavista"		state="Virginia"	latitude="37.11743" longitude="-79.28807"/>
		<city name="Altoona"		state="Pennsylvania"	latitude="40.51926" longitude="-78.40734"/>
		<city name="Amarillo"		state="Texas"		latitude="35.18807" longitude="-101.85688"/>
		<city name="Ambler"		state="Pennsylvania"	latitude="40.16972" longitude="-75.20917"/>
		<city name="Ames"		state="Iowa"		latitude="42.02752" longitude="-93.63853"/>
		<city name="Amherst"		state="Massachusetts"	latitude="41.71101" longitude="-81.79266"/>
		<city name="Anaheim"		state="California"	latitude="33.83945" longitude="-117.86422"/>
		<city name="Anchorage"		state="Alaska"		latitude="56.54862" longitude="-139.46421"/>
		<city name="Andalusia"		state="Alabama" 	latitude="31.29908" longitude="-86.48807"/>
		<city name="Anderson"		state="South Carolina"	latitude="34.52752" longitude="-82.66789"/>
		<city name="Andover"		state="Massachusetts"	latitude="42.58899" longitude="-71.36697"/>
		<city name="Andrews AFB"	state="Maryland"	latitude="37.99816" longitude="-97.99817"/>
		<city name="Angleton"		state="Texas"		latitude="29.17981" longitude="-95.44954"/>
		<city name="Angola"		state="Indiana" 	latitude="41.65871" longitude="-85.01835"/>
		<city name="Ann Arbor"		state="Michigan"	latitude="42.27247" longitude="-83.72477"/>
		<city name="Annandale"		state="Virginia"	latitude="38.82935" longitude="-77.20733"/>
		<city name="Annapolis"		state="Maryland"	latitude="38.97523" longitude="-76.48623"/>
		<city name="Annapolis Junction"	state="Maryland"	latitude="39.12935" longitude="-76.80000"/>
		<city name="Anniston"		state="Alabama" 	latitude="33.64954" longitude="-85.83853"/>
		<city name="Antioch"		state="California"	latitude="37.02385" longitude="-104.23486"/>
		<city name="Apex"		state="North Carolina"	latitude="35.71926" longitude="-78.83670"/>
		<city name="Apo New York"	state="New York"	latitude="37.99816" longitude="-97.99817"/>
		<city name="Apo San Francisco"	state="California"	latitude="37.99816" longitude="-97.99817"/>
		<city name="Apopka"		state="Florida"		latitude="28.66789" longitude="-81.40734"/>
		<city name="Appleton"		state="Wisconsin"	latitude="44.26789" longitude="-88.40917"/>
		<city name="Arcata"		state="California"	latitude="40.89908" longitude="-124.07889"/>
		<city name="Arden Hills"	state="Minnesota"	latitude="45.07431" longitude="-93.15963"/>
		<city name="Ardmore"		state="Pennsylvania"	latitude="39.99908" longitude="-75.29725"/>
		<city name="Ardsley"		state="New York"	latitude="41.00917" longitude="-73.83853"/>
		<city name="Argonne"		state="Illinois"	latitude="41.70000" longitude="-88.01835"/>
		<city name="Arlington"		state="Virginia"	latitude="36.96605" longitude="-83.82385"/>
		<city name="Arlington Heights"	state="Illinois"	latitude="42.08807" longitude="-87.97982"/>
		<city name="Armonk"		state="New York"	latitude="41.13853" longitude="-73.69541"/>
		<city name="Asbury Park"	state="New Jersey"	latitude="40.22250" longitude="-74.01222"/>
		<city name="Ashburn"		state="Virginia"	latitude="39.03853" longitude="-77.47706"/>
		<city name="Asheboro"		state="North Carolina"	latitude="36.84495" longitude="-88.90458"/>
		<city name="Asheville"		state="North Carolina"	latitude="35.61743" longitude="-82.55780"/>
		<city name="Ashland"		state="Oregon"		latitude="40.31284" longitude="-102.69358"/>
		<city name="Aston"		state="Pennsylvania"	latitude="39.85871" longitude="-75.42936"/>
		<city name="Astoria"		state="New York"	latitude="40.74770" longitude="-73.93761"/>
		<city name="Athens"		state="Georgia"		latitude="35.05871" longitude="-87.06054"/>
		<city name="Atherton"		state="California"	latitude="37.45871" longitude="-122.19632"/>
		<city name="Atlanta"		state="Georgia"		latitude="34.05412" longitude="-84.91376"/>
		<city name="Atlantic City"	state="New Jersey"	latitude="39.36880" longitude="-74.42752"/>
		<city name="Attleboro"		state="Massachusetts"	latitude="41.92844" longitude="-71.29541"/>
		<city name="Auburn"		state="Alabama" 	latitude="39.24495" longitude="-77.96147"/>
		<city name="Auburn Hills"	state="Michigan"	latitude="42.65780" longitude="-83.23486"/>
		<city name="Auburndale"		state="Wisconsin"	latitude="44.63945" longitude="-90.00550"/>
		<city name="Audubon"		state="New Jersey"	latitude="39.88899" longitude="-75.06605"/>
		<city name="Augusta"		state="Georgia"		latitude="38.88990" longitude="-75.86972"/>
		<city name="Augusta"		state="Maine"		latitude="44.30707" longitude="-69.7812"/>
		<city name="Aurora"		state="Colorado"	latitude="40.55779" longitude="-98.18531"/>
		<city name="Austin"		state="Texas"		latitude="31.10642" longitude="-97.61284"/>
		<city name="Avenel"		state="New Jersey"	latitude="40.57981" longitude="-74.27890"/>
		<city name="Aventura"		state="Florida"		latitude="25.95963" longitude="-80.13578"/>
		<city name="Avoca"		state="Pennsylvania"	latitude="41.32844" longitude="-75.73761"/>
		<city name="Avon"		state="Colorado"	latitude="37.99816" longitude="-97.99817"/>
		<city name="Avondale"		state="Pennsylvania"	latitude="39.81743" longitude="-75.76513"/>
		<city name="Azalia"		state="Michigan"	latitude="37.99816" longitude="-97.99817"/>
		<city name="Babson Park"	state="Massachusetts"	latitude="37.99816" longitude="-97.99817"/>
		<city name="Baca Raton"		state="Florida"		latitude="26.40825" longitude="-80.08623"/>
		<city name="Bainbridge Island"	state="Washington"	latitude="47.64770" longitude="-122.52660"/>
		<city name="Bakersfield"	state="California"	latitude="35.36422" longitude="-119.03669"/>
		<city name="Bala Cynwyd"	state="Pennsylvania"	latitude="40.00734" longitude="-75.22568"/>
		<city name="Baldwin Park"	state="California"	latitude="34.07890" longitude="-117.96881"/>
		<city name="Baldwinsville"	state="New York"	latitude="43.15871" longitude="-76.31559"/>
		<city name="Ballston Spa"	state="New York"	latitude="43.00734" longitude="-73.84954"/>
		<city name="Baltimore"		state="Maryland"	latitude="39.17614" longitude="-78.55046"/>
		<city name="Bangor"		state="Maine"		latitude="44.81834" longitude="-68.78532"/>
		<city name="Bannockburn"	state="Illinois"	latitude="42.16789" longitude="-87.85872"/>
		<city name="Baraga"		state="Michigan"	latitude="46.78899" longitude="-88.49724"/>
		<city name="Barbourville"	state="Kentucky"	latitude="36.85871" longitude="-83.89541"/>
		<city name="Barrington"		state="Illinois"	latitude="41.94770" longitude="-79.72844"/>
		<city name="Bartlesville"	state="Oklahoma"	latitude="37.99816" longitude="-97.99817"/>
		<city name="Bartonville"	state="Illinois"	latitude="40.64862" longitude="-89.66972"/>
		<city name="Basalt"		state="Colorado"	latitude="39.34954" longitude="-106.99817"/>
		<city name="Basking Ridge"	state="New Jersey"	latitude="40.67889" longitude="-74.55963"/>
		<city name="Batavia"		state="Illinois"	latitude="41.31467" longitude="-83.54862"/>
		<city name="Baton Rouge"	state="Louisiana"	latitude="31.67614" longitude="-92.24587"/>
		<city name="Battlecreek"	state="Michigan"	latitude="42.32752" longitude="-85.17798"/>
		<city name="Bay Harbor"		state="Florida"		latitude="25.87981" longitude="-80.12477"/>
		<city name="Bayonne"		state="New Jersey"	latitude="40.66789" longitude="-74.11926"/>
		<city name="Beachwood"		state="Ohio"		latitude="41.46880" longitude="-81.51743"/>
		<city name="Beale AFB"		state="California"	latitude="37.99816" longitude="-97.99817"/>
		<city name="Beaufort"		state="South Carolina"	latitude="35.20734" longitude="-89.35045"/>
		<city name="Beaumont"		state="Texas"		latitude="30.06605" longitude="-94.15046"/>
		<city name="Beaver"		state="West Virginia"	latitude="37.74770" longitude="-81.06605"/>
		<city name="Beaver Dam"		state="Wisconsin"	latitude="43.45871" longitude="-88.83853"/>
		<city name="Beaver Falls"	state="Pennsylvania"	latitude="40.76972" longitude="-80.33944"/>
		<city name="Beavercreek"	state="Ohio"		latitude="39.76789" longitude="-84.09908"/>
		<city name="Beaverton"		state="Oregon"		latitude="45.48991" longitude="-122.84037"/>
		<city name="Beckley"		state="West Virginia"	latitude="37.78899" longitude="-81.20917"/>
		<city name="Bedford"		state="Massachusetts"	latitude="39.11559" longitude="-79.59633"/>
		<city name="Bedminster"		state="New Jersey"	latitude="40.65963" longitude="-74.63669"/>
		<city name="Beggs"		state="Oklahoma"	latitude="35.78807" longitude="-96.02752"/>
		<city name="Bel Air"		state="Maryland"	latitude="39.52844" longitude="-76.31559"/>
		<city name="Bellaire"		state="Texas"		latitude="29.70000" longitude="-95.45504"/>
		<city name="Belle Mead"		state="New Jersey"	latitude="40.46972" longitude="-74.62568"/>
		<city name="Belle Vernon"	state="Pennsylvania"	latitude="40.13945" longitude="-79.82752"/>
		<city name="Bellefontaine"	state="Ohio"		latitude="40.35963" longitude="-83.75779"/>
		<city name="Belleville"		state="Illinois"	latitude="38.54862" longitude="-89.85688"/>
		<city name="Bellevue"		state="Washington"	latitude="46.80275" longitude="-118.92110"/>
		<city name="Bellingham"		state="Washington"	latitude="48.75412" longitude="-122.46054"/>
		<city name="Bellmawr"		state="New Jersey"	latitude="39.86972" longitude="-75.08807"/>
		<city name="Bellmore"		state="New York"	latitude="40.67889" longitude="-73.52477"/>
		<city name="Bellows Falls"	state="Vermont"		latitude="43.14770" longitude="-72.46788"/>
		<city name="Bellwood"		state="Pennsylvania"	latitude="40.59908" longitude="-78.33577"/>
		<city name="Belmont"		state="Massachusetts"	latitude="39.95229" longitude="-96.72660"/>
		<city name="Beloit"		state="Kansas"		latitude="39.44862" longitude="-98.10825"/>
		<city name="Beltsville"		state="Maryland"	latitude="39.04954" longitude="-76.91559"/>
		<city name="Bemidji"		state="Minnesota"	latitude="47.48807" longitude="-94.84954"/>
		<city name="Bend"		state="Oregon"		latitude="44.05321" longitude="-121.29358"/>
		<city name="Benkelman"		state="Nebraska"	latitude="40.09816" longitude="-101.52660"/>
		<city name="Bensenville"	state="Illinois"	latitude="41.94770" longitude="-87.93578"/>
		<city name="Bentleyville"	state="Pennsylvania"	latitude="40.11743" longitude="-80.00917"/>
		<city name="Benton Harbor"	state="Michigan"	latitude="42.10733" longitude="-86.41651"/>
		<city name="Bentonville"	state="Arkansas"	latitude="36.32752" longitude="-94.17798"/>
		<city name="Bergenfield"	state="New Jersey"	latitude="40.91835" longitude="-73.99817"/>
		<city name="Berkeley"		state="California"	latitude="37.86605" longitude="-122.26789"/>
		<city name="Berkeley Heights"	state="New Jersey"	latitude="40.67889" longitude="-74.42752"/>
		<city name="Berlin"		state="New Jersey"	latitude="41.39174" longitude="-75.02201"/>
		<city name="Berrien Springs"	state="Michigan"	latitude="41.94770" longitude="-86.34495"/>
		<city name="Berryton"		state="Kansas"		latitude="38.93945" longitude="-95.57615"/>
		<city name="Berryville"		state="Virginia"	latitude="39.14862" longitude="-77.96697"/>
		<city name="Berwyn"		state="Pennsylvania"	latitude="40.03761" longitude="-75.44587"/>
		<city name="Bethel"		state="Connecticut"	latitude="41.37798" longitude="-73.39816"/>
		<city name="Bethesda"		state="Maryland"	latitude="39.01926" longitude="-77.14128"/>
		<city name="Bethlehem"		state="Pennsylvania"	latitude="39.74862" longitude="-82.91009"/>
		<city name="Bethpage"		state="New York"	latitude="40.73945" longitude="-73.48623"/>
		<city name="Bettendorf"		state="Iowa"		latitude="41.54862" longitude="-90.48990"/>
		<city name="Beverly"		state="Massachusetts"	latitude="42.55871" longitude="-70.87706"/>
		<city name="Beverly Hills"	state="California"	latitude="34.07064" longitude="-118.39266"/>
		<city name="Biddeford"		state="Maine"		latitude="43.47798" longitude="-70.46972"/>
		<city name="Big Lake"		state="Minnesota"	latitude="45.34954" longitude="-93.73761"/>
		<city name="Big Rapids"		state="Michigan"	latitude="43.68990" longitude="-85.47522"/>
		<city name="Big Stone Gap"	state="Virginia"	latitude="36.85871" longitude="-82.75596"/>
		<city name="Billerica"		state="Massachusetts"	latitude="42.54770" longitude="-71.24587"/>
		<city name="Billings"		state="Montana" 	latitude="45.76789" longitude="-108.49541"/>
		<city name="Biloxi"		state="Mississippi"	latitude="30.39908" longitude="-88.89908"/>
		<city name="Bingham Farms"	state="Michigan"	latitude="42.51743" longitude="-83.24587"/>
		<city name="Binghamton"		state="New York"	latitude="42.14862" longitude="-75.88623"/>
		<city name="Birmingham"		state="Alabama" 	latitude="33.95229" longitude="-88.04586"/>
		<city name="Bismarck"		state="North Dakota"	latitude="46.81926" longitude="-100.76697"/>
		<city name="Blacksburg"		state="Virginia"	latitude="37.61284" longitude="-89.21284"/>
		<city name="Blair"		state="Nebraska"	latitude="41.54862" longitude="-96.15963"/>
		<city name="Blanco"		state="Texas"		latitude="30.08807" longitude="-98.40550"/>
		<city name="Blanding"		state="Utah"		latitude="37.58807" longitude="-109.48623"/>
		<city name="Bloomfield"		state="Colorado"	latitude="41.40000" longitude="-91.68991"/>
		<city name="Bloomfield"		state="New Jersey"	latitude="40.80825" longitude="-74.21834"/>
		<city name="Bloomfield Hills"	state="Michigan"	latitude="42.58899" longitude="-83.22935"/>
		<city name="Bloomingdale"	state="Illinois"	latitude="42.16238" longitude="-87.01651"/>
		<city name="Bloomington"	state="Indiana" 	latitude="41.98073" longitude="-90.08256"/>
		<city name="Bloomsburg"		state="Pennsylvania"	latitude="41.00917" longitude="-76.43670"/>
		<city name="Blountsville"	state="Alabama" 	latitude="34.08991" longitude="-86.56514"/>
		<city name="Blue Bell"		state="Pennsylvania"	latitude="40.15871" longitude="-75.27523"/>
		<city name="Blue Earth"		state="Minnesota"	latitude="43.63761" longitude="-94.08990"/>
		<city name="Blue Springs"	state="Missouri"	latitude="39.01926" longitude="-94.25504"/>
		<city name="Bluefield"		state="West Virginia"	latitude="37.27981" longitude="-81.22568"/>
		<city name="Boca Raton"		state="Florida"		latitude="26.36697" longitude="-80.13578"/>
		<city name="Bohemia"		state="New York"	latitude="40.76972" longitude="-73.11743"/>
		<city name="Boise"		state="Idaho"		latitude="42.67981" longitude="-113.19632"/>
		<city name="Bolingbrook"	state="Illinois"	latitude="41.70000" longitude="-88.08990"/>
		<city name="Bolivar"		state="Missouri"	latitude="37.60733" longitude="-93.40734"/>
		<city name="Bolton"		state="Massachusetts"	latitude="42.43761" longitude="-71.60917"/>
		<city name="Boone"		state="North Carolina"	latitude="36.20917" longitude="-81.66605"/>
		<city name="Boone Grove"	state="Indiana" 	latitude="37.99816" longitude="-97.99817"/>
		<city name="Boston"		state="Massachusetts"	latitude="42.34954" longitude="-71.08073"/>
		<city name="Bothell"		state="Washington"	latitude="47.76880" longitude="-122.21834"/>
		<city name="Boulder"		state="Colorado"	latitude="40.01835" longitude="-105.24220"/>
		<city name="Bowie"		state="Maryland"	latitude="38.92844" longitude="-76.72844"/>
		<city name="Bozeman"		state="Montana" 	latitude="41.83486" longitude="-104.51559"/>
		<city name="Bracey"		state="Virginia"	latitude="36.57798" longitude="-78.10458"/>
		<city name="Brainerd"		state="Minnesota"	latitude="46.35963" longitude="-94.19449"/>
		<city name="Braintree"		state="Massachusetts"	latitude="42.20917" longitude="-70.99817"/>
		<city name="Branch"		state="Michigan"	latitude="43.91835" longitude="-86.12477"/>
		<city name="Brandon"		state="Florida"		latitude="27.93302" longitude="-82.29358"/>
		<city name="Branford"		state="Connecticut"	latitude="41.27890" longitude="-72.80917"/>
		<city name="Brea"		state="California"	latitude="35.95871" longitude="-107.94495"/>
		<city name="Breckenridge"	state="Missouri"	latitude="39.75963" longitude="-93.80917"/>
		<city name="Bremerton"		state="Washington"	latitude="47.66422" longitude="-122.70826"/>
		<city name="Brentwood"		state="Tennessee"	latitude="38.39449" longitude="-80.01468"/>
		<city name="Brewton"		state="Alabama" 	latitude="31.11743" longitude="-87.06605"/>
		<city name="Brick"		state="New Jersey"	latitude="40.03761" longitude="-74.12477"/>
		<city name="Bridgeport"		state="Texas"		latitude="38.88165" longitude="-85.65137"/>
		<city name="Bridgeton"		state="Missouri"	latitude="38.74954" longitude="-90.41835"/>
		<city name="Bridgeville"	state="Pennsylvania"	latitude="40.34862" longitude="-80.11926"/>
		<city name="Bridgewater"	state="New Jersey"	latitude="40.58807" longitude="-74.62568"/>
		<city name="Brigham City"	state="Utah"		latitude="41.50734" longitude="-112.01835"/>
		<city name="Brisbane"		state="California"	latitude="37.67889" longitude="-122.40000"/>
		<city name="Bristol"		state="Connecticut"	latitude="39.14862" longitude="-77.55413"/>
		<city name="Bristol"		state="Rhode Island"	latitude="39.75000" longitude="-84.64900"/>
		<city name="Bristow"		state="Virginia"	latitude="38.74954" longitude="-77.57615"/>
		<city name="Brockton"		state="Massachusetts"	latitude="42.07981" longitude="-71.02568"/>
		<city name="Brodhead"		state="Wisconsin"	latitude="42.60825" longitude="-89.36697"/>
		<city name="Broken Arrow"	state="Oklahoma"	latitude="36.03853" longitude="-95.80734"/>
		<city name="Bronx"		state="New York"	latitude="40.84403" longitude="-73.86605"/>
		<city name="Bronxville"		state="New York"	latitude="40.93761" longitude="-73.83853"/>
		<city name="Brookfield"		state="Wisconsin"	latitude="42.53119" longitude="-83.21284"/>
		<city name="Brookings"		state="South Dakota"	latitude="44.30917" longitude="-96.78715"/>
		<city name="Brookline"		state="Massachusetts"	latitude="42.33853" longitude="-71.12477"/>
		<city name="Brooklyn"		state="New York"	latitude="40.64312" longitude="-73.98716"/>
		<city name="Brooklyn Park"	state="Minnesota"	latitude="45.05779" longitude="-93.37981"/>
		<city name="Brooks AFB"		state="Texas"		latitude="29.33945" longitude="-98.43853"/>
		<city name="Broomall"		state="Pennsylvania"	latitude="39.96880" longitude="-75.35779"/>
		<city name="Broomfield"		state="Colorado"	latitude="39.85321" longitude="-105.02201"/>
		<city name="Brown Deer"		state="Wisconsin"	latitude="43.15871" longitude="-87.98532"/>
		<city name="Brunswick"		state="Ohio"		latitude="38.77156" longitude="-77.75779"/>
		<city name="Bryan"		state="Texas"		latitude="30.64403" longitude="-96.35229"/>
		<city name="Bryn Mawr"		state="Pennsylvania"	latitude="40.01835" longitude="-75.32476"/>
		<city name="Buckfield"		state="Maine"		latitude="44.28991" longitude="-70.36513"/>
		<city name="Buckhannon"		state="West Virginia"	latitude="38.97798" longitude="-80.21834"/>
		<city name="Bucyrus"		state="Ohio"		latitude="40.80825" longitude="-82.96514"/>
		<city name="Buena Park"		state="California"	latitude="33.83945" longitude="-118.00734"/>
		<city name="Buffalo"		state="New York"	latitude="42.92752" longitude="-78.85872"/>
		<city name="Buffalo Grove"	state="Illinois"	latitude="42.15963" longitude="-87.95780"/>
		<city name="Burbank"		state="California"	latitude="34.11192" longitude="-112.97615"/>
		<city name="Burke"		state="Virginia"	latitude="38.78807" longitude="-77.27890"/>
		<city name="Burlingame"		state="California"	latitude="37.57981" longitude="-122.35596"/>
		<city name="Burlington"		state="Massachusetts"	latitude="42.02477" longitude="-83.13578"/>
		<city name="Burtonsville"	state="Maryland"	latitude="39.08807" longitude="-76.92660"/>
		<city name="Butte"		state="Montana" 	latitude="45.98807" longitude="-112.51926"/>
		<city name="Cadiz"		state="Ohio"		latitude="40.25779" longitude="-81.00000"/>
		<city name="Calabasas"		state="California"	latitude="34.14770" longitude="-118.70642"/>
		<city name="Caldwell"		state="Idaho"		latitude="43.65963" longitude="-116.69725"/>
		<city name="Caledonia"		state="Michigan"	latitude="42.79816" longitude="-85.55780"/>
		<city name="Calexico"		state="California"	latitude="32.67798" longitude="-115.49724"/>
		<city name="California"		state="Maryland"	latitude="38.29816" longitude="-76.52477"/>
		<city name="California City"	state="California"	latitude="35.12752" longitude="-117.96881"/>
		<city name="Camarillo"		state="California"	latitude="34.22477" longitude="-119.01468"/>
		<city name="Cambridge"		state="Massachusetts"	latitude="42.37156" longitude="-71.10275"/>
		<city name="Camden"		state="New Jersey"	latitude="39.93853" longitude="-75.10458"/>
		<city name="Camp Hill"		state="Pennsylvania"	latitude="40.23853" longitude="-76.92660"/>
		<city name="Camp Lejeune"	state="North Carolina"	latitude="34.66789" longitude="-77.33944"/>
		<city name="Camp Pendleton"	state="California"	latitude="33.32752" longitude="-117.40734"/>
		<city name="Camp Smith"		state="Hawaii"		latitude="37.99816" longitude="-97.99817"/>
		<city name="Camp Springs"	state="Maryland"	latitude="38.81834" longitude="-76.94862"/>
		<city name="Campbell"		state="California"	latitude="37.27981" longitude="-121.95963"/>
		<city name="Campo Grande"	state="Mississippi"	latitude="36.36881" longitude="-100.81651"/>
		<city name="Canfield"		state="Ohio"		latitude="41.02844" longitude="-80.75779"/>
		<city name="Canoga Park"	state="California"	latitude="34.20275" longitude="-118.57982"/>
		<city name="Canon City"		state="Colorado"	latitude="38.44954" longitude="-105.21467"/>
		<city name="Canonsburg"		state="Pennsylvania"	latitude="40.26880" longitude="-80.14679"/>
		<city name="Canton"		state="Massachusetts"	latitude="41.47706" longitude="-78.62201"/>
		<city name="Cape Coral"		state="Florida"		latitude="26.57890" longitude="-81.94679"/>
		<city name="Cape May"		state="New Jersey"	latitude="38.94400" longitude="-74.90528"/>
		<city name="Capistrano Beach"	state="California"	latitude="33.45963" longitude="-117.65504"/>
		<city name="Capitola"		state="California"	latitude="36.97981" longitude="-121.94862"/>
		<city name="Carbondale"		state="Illinois"	latitude="38.55412" longitude="-98.19082"/>
		<city name="Carlisle"		state="Pennsylvania"	latitude="39.97431" longitude="-76.76697"/>
		<city name="Carlsbad"		state="California"	latitude="33.12935" longitude="-117.28624"/>
		<city name="Carmel"		state="Indiana" 	latitude="38.25963" longitude="-104.00367"/>
		<city name="Carmichael"		state="California"	latitude="38.62844" longitude="-121.32660"/>
		<city name="Carol Stream"	state="Illinois"	latitude="41.91743" longitude="-88.13945"/>
		<city name="Carpinteria"	state="California"	latitude="34.39816" longitude="-119.51559"/>
		<city name="Carrollton"		state="Texas"		latitude="33.27247" longitude="-90.97982"/>
		<city name="Carson"		state="California"	latitude="33.85871" longitude="-118.25504"/>
		<city name="Carson City"	state="Nevada"		latitude="39.17889" longitude="-119.74128"/>
		<city name="Carter Lake"	state="Iowa"		latitude="41.24862" longitude="-95.87890"/>
		<city name="Cartersville"	state="Georgia"		latitude="34.18899" longitude="-84.81468"/>
		<city name="Cary"		state="North Carolina"	latitude="37.92660" longitude="-81.93578"/>
		<city name="Cas Diego"		state="California"	latitude="32.67798" longitude="-117.11559"/>
		<city name="Casper"		state="Wyoming" 	latitude="42.84770" longitude="-106.31559"/>
		<city name="Castaic"		state="California"	latitude="34.47798" longitude="-118.62935"/>
		<city name="Catharpin"		state="Virginia"	latitude="38.84862" longitude="-77.55963"/>
		<city name="Cathedral City"	state="California"	latitude="33.80917" longitude="-116.46605"/>
		<city name="Catskill"		state="New York"	latitude="42.22844" longitude="-73.89908"/>
		<city name="Cayce"		state="South Carolina"	latitude="34.04862" longitude="-81.10458"/>
		<city name="Cedar Bluff"	state="Virginia"	latitude="37.07890" longitude="-81.76513"/>
		<city name="Cedar Falls"	state="Iowa"		latitude="42.51743" longitude="-92.44954"/>
		<city name="Cedar Grove"	state="New Jersey"	latitude="40.84954" longitude="-74.22935"/>
		<city name="Cedar Knolls"	state="New Jersey"	latitude="40.81926" longitude="-74.45504"/>
		<city name="Cedar Rapids"	state="Iowa"		latitude="41.97798" longitude="-91.66789"/>
		<city name="Center Line"	state="Michigan"	latitude="42.47890" longitude="-83.01468"/>
		<city name="Central"		state="Arizona" 	latitude="37.99816" longitude="-97.99817"/>
		<city name="Centralia"		state="Washington"	latitude="46.71743" longitude="-122.96697"/>
		<city name="Centreville"	state="Virginia"	latitude="38.83761" longitude="-77.44954"/>
		<city name="Chadds Ford"	state="Pennsylvania"	latitude="39.85871" longitude="-75.58899"/>
		<city name="Chambersburg"	state="Pennsylvania"	latitude="39.92752" longitude="-77.65871"/>
		<city name="Champaign"		state="Illinois"	latitude="40.70091" longitude="-88.15046"/>
		<city name="Chandler"		state="Arizona" 	latitude="33.30825" longitude="-111.86972"/>
		<city name="Chanhassen"		state="Minnesota"	latitude="44.86789" longitude="-93.53945"/>
		<city name="Chantilly"		state="Virginia"	latitude="38.43853" longitude="-87.71560"/>
		<city name="Charleston"		state="South Carolina"	latitude="33.91926" longitude="-80.27890"/>
		<city name="Charlestown"	state="Massachusetts"	latitude="42.37981" longitude="-71.05871"/>
		<city name="Charlotte"		state="North Carolina"	latitude="35.38073" longitude="-81.98532"/>
		<city name="Charlottesville"	state="Virginia"	latitude="38.02568" longitude="-84.99633"/>
		<city name="Chaska"		state="Minnesota"	latitude="44.80734" longitude="-93.60550"/>
		<city name="Chatham"		state="Illinois"	latitude="40.91559" longitude="-79.23302"/>
		<city name="Chatham"		state="New Jersey"	latitude="40.74126" longitude="-74.38518"/>
		<city name="Chatsworth"		state="California"	latitude="34.25779" longitude="-118.58532"/>
		<city name="Chattanooga"	state="Tennessee"	latitude="35.46605" longitude="-87.11009"/>
		<city name="Chelmsford"		state="Massachusetts"	latitude="42.58899" longitude="-71.35596"/>
		<city name="Cheney"		state="Washington"	latitude="47.48807" longitude="-117.57798"/>
		<city name="Cherry Hill"	state="New Jersey"	latitude="39.90550" longitude="-74.99450"/>
		<city name="Cherry Point"	state="North Carolina"	latitude="37.99816" longitude="-97.99817"/>
		<city name="Chesapeake"		state="Virginia"	latitude="36.73761" longitude="-76.23853"/>
		<city name="Chesapeake Beach"	state="Maryland"	latitude="38.66972" longitude="-76.53578"/>
		<city name="Cheshire"		state="Connecticut"	latitude="41.50734" longitude="-72.90825"/>
		<city name="Chester"		state="Vermont" 	latitude="41.56238" longitude="-73.98165"/>
		<city name="Chesterfield"	state="Missouri"	latitude="40.66238" longitude="-86.65871"/>
		<city name="Chesterton"		state="Indiana" 	latitude="41.59816" longitude="-87.04953"/>
		<city name="Chestertown"	state="Maryland"	latitude="39.20917" longitude="-76.07889"/>
		<city name="Chestnut Hill"	state="Massachusetts"	latitude="37.99816" longitude="-97.99817"/>
		<city name="Chevy Chase"	state="Maryland"	latitude="38.97798" longitude="-77.07522"/>
		<city name="Cheyenne"		state="Wyoming" 	latitude="41.15780" longitude="-104.79633"/>
		<city name="Chicago"		state="Illinois"	latitude="41.91192" longitude="-87.68257"/>
		<city name="Chico"		state="California"	latitude="39.74311" longitude="-121.83303"/>
		<city name="China Lake"		state="California"	latitude="35.62844" longitude="-117.67706"/>
		<city name="Chino"		state="California"	latitude="34.00734" longitude="-117.67706"/>
		<city name="Chula Vista"	state="California"	latitude="32.63945" longitude="-117.06605"/>
		<city name="Cicero"		state="Illinois"	latitude="41.84862" longitude="-87.75963"/>
		<city name="Cincinnati"		state="Ohio"		latitude="39.20917" longitude="-84.44037"/>
		<city name="Cinnaminson"	state="New Jersey"	latitude="39.99908" longitude="-75.00000"/>
		<city name="Circle"		state="Montana" 	latitude="47.42752" longitude="-105.60550"/>
		<city name="Citrus Heights"	state="California"	latitude="38.70000" longitude="-121.30458"/>
		<city name="City of Industry"	state="California"	latitude="34.80825" longitude="-113.93945"/>
		<city name="Claremont"		state="California"	latitude="38.73853" longitude="-95.02568"/>
		<city name="Clarkesville"	state="Georgia"		latitude="34.64862" longitude="-83.51559"/>
		<city name="Clarkston"		state="Michigan"	latitude="42.74311" longitude="-83.40000"/>
		<city name="Clayton"		state="Missouri"	latitude="41.42752" longitude="-83.21284"/>
		<city name="Clearwater"		state="Florida"		latitude="30.47614" longitude="-86.57615"/>
		<city name="Cleburne"		state="Texas"		latitude="32.33945" longitude="-97.39816"/>
		<city name="Cleveland"		state="Ohio"		latitude="40.93211" longitude="-81.91376"/>
		<city name="Clifton"		state="New Jersey"	latitude="40.85780" longitude="-74.14679"/>
		<city name="Clifton Park"	state="New York"	latitude="42.84770" longitude="-73.78899"/>
		<city name="Climax"		state="Michigan"	latitude="42.22844" longitude="-85.31559"/>
		<city name="Clintom"		state="Maryland"	latitude="38.74954" longitude="-76.89908"/>
		<city name="Clinton"		state="New Jersey"	latitude="37.82752" longitude="-76.61834"/>
		<city name="Cloverdale"		state="Indiana" 	latitude="39.53944" longitude="-86.80734"/>
		<city name="Clovis"		state="New Mexico"	latitude="34.40917" longitude="-103.21651"/>
		<city name="Coarsegold"		state="California"	latitude="37.21926" longitude="-119.74678"/>
		<city name="Cocoa"		state="Florida"		latitude="28.42844" longitude="-80.78532"/>
		<city name="Cocoa Beach"	state="Florida"		latitude="28.25779" longitude="-80.60917"/>
		<city name="Coconut Grove"	state="Florida"		latitude="25.72844" longitude="-80.23486"/>
		<city name="Cold Spring Harbor"	state="New York"	latitude="40.85780" longitude="-73.44770"/>
		<city name="Coleman"		state="South Dakota"	latitude="43.95963" longitude="-96.81468"/>
		<city name="College Park"	state="Maryland"	latitude="39.00000" longitude="-76.92660"/>
		<city name="College Station"	state="Texas"		latitude="30.57247" longitude="-96.31926"/>
		<city name="Collinston"		state="Louisiana"	latitude="32.70000" longitude="-91.85505"/>
		<city name="Colorado Springs"	state="Colorado"	latitude="38.87890" longitude="-104.78532"/>
		<city name="Colton"		state="California"	latitude="34.05963" longitude="-117.31926"/>
		<city name="Columbia"		state="Missouri"	latitude="37.16972" longitude="-84.20366"/>
		<city name="Columbia Falls"	state="Montana" 	latitude="48.34954" longitude="-114.17614"/>
		<city name="Columbus"		state="Ohio"		latitude="38.83211" longitude="-84.95780"/>
		<city name="Columbus Grove"	state="Ohio"		latitude="40.90734" longitude="-84.06605"/>
		<city name="Colville"		state="Washington"	latitude="48.57798" longitude="-117.85872"/>
		<city name="Commack"		state="New York"	latitude="40.83853" longitude="-73.27706"/>
		<city name="Concord"		state="California"	latitude="41.21835" longitude="-88.31009"/>
		<city name="Conroe"		state="Texas"		latitude="30.18991" longitude="-95.42752"/>
		<city name="Conshohocken"	state="Pennsylvania"	latitude="40.11743" longitude="-75.28624"/>
		<city name="Contoocook"		state="New Hampshire"	latitude="43.21926" longitude="-71.69725"/>
		<city name="Conway"		state="South Carolina"	latitude="34.47247" longitude="-85.73945"/>
		<city name="Conyers"		state="Georgia"		latitude="33.67981" longitude="-84.01651"/>
		<city name="Cookeville"		state="Tennessee"	latitude="36.16789" longitude="-85.49724"/>
		<city name="Cooper City"	state="Florida"		latitude="26.01743" longitude="-80.29541"/>
		<city name="Copperas Cove"	state="Texas"		latitude="31.12844" longitude="-97.90458"/>
		<city name="Copperopolis"	state="California"	latitude="37.93761" longitude="-120.63853"/>
		<city name="Coral Gables"	state="Florida"		latitude="25.73945" longitude="-80.26789"/>
		<city name="Coral Springs"	state="Florida"		latitude="26.26513" longitude="-80.25137"/>
		<city name="Coralville"		state="Iowa"		latitude="41.68899" longitude="-91.58532"/>
		<city name="Coraopolis"		state="Pennsylvania"	latitude="40.50825" longitude="-80.18531"/>
		<city name="Cordova"		state="Tennessee"	latitude="35.15780" longitude="-89.77981"/>
		<city name="Corinth"		state="Mississippi"	latitude="34.92936" longitude="-88.53578"/>
		<city name="Cornelius"		state="North Carolina"	latitude="37.99816" longitude="-97.99817"/>
		<city name="Corning"		state="New York"	latitude="42.13761" longitude="-77.04770"/>
		<city name="Cornwall"		state="Pennsylvania"	latitude="37.99816" longitude="-97.99817"/>
		<city name="Corona"		state="California"	latitude="33.87798" longitude="-117.58899"/>
		<city name="Corona Del Mar"	state="California"	latitude="33.59724" longitude="-117.86972"/>
		<city name="Coronado"		state="California"	latitude="32.67798" longitude="-117.16513"/>
		<city name="Corpus Christi"	state="Texas"		latitude="31.15871" longitude="-97.55780"/>
		<city name="Corte Madera"	state="California"	latitude="37.91835" longitude="-122.50458"/>
		<city name="Cortland"		state="Illinois"	latitude="37.99816" longitude="-97.99817"/>
		<city name="Corunna"		state="Michigan"	latitude="43.03761" longitude="-84.02752"/>
		<city name="Corvallis"		state="Oregon"		latitude="44.56238" longitude="-123.27523"/>
		<city name="Coshocton"		state="Ohio"		latitude="40.27981" longitude="-81.86972"/>
		<city name="Costa Mesa"		state="California"	latitude="35.10825" longitude="-111.27523"/>
		<city name="Cottondale"		state="Alabama" 	latitude="33.17889" longitude="-87.38532"/>
		<city name="Cottonwood"		state="Arizona" 	latitude="34.70917" longitude="-112.00734"/>
		<city name="Coudersport"	state="Pennsylvania"	latitude="41.77981" longitude="-78.00000"/>
		<city name="Covington"		state="Louisiana"	latitude="30.48990" longitude="-90.09908"/>
		<city name="Coyote"		state="California"	latitude="37.21926" longitude="-121.74495"/>
		<city name="Craigville"		state="Indiana" 	latitude="40.78899" longitude="-85.08990"/>
		<city name="Cranberry Township"	state="Pennsylvania"	latitude="37.99816" longitude="-97.99817"/>
		<city name="Cranbury"		state="New Jersey"	latitude="40.29908" longitude="-74.50458"/>
		<city name="Crane"		state="Indiana" 	latitude="38.84862" longitude="-86.86789"/>
		<city name="Cranston"		state="Rhode Island"	latitude="41.77981" longitude="-71.43853"/>
		<city name="Creve Coeur"	state="Missouri"	latitude="38.65871" longitude="-90.45688"/>
		<city name="Croswell"		state="Michigan"	latitude="43.25779" longitude="-82.62935"/>
		<city name="Croton-on-Hudson"	state="New York"	latitude="41.21835" longitude="-73.88807"/>
		<city name="Crystal Lake"	state="Illinois"	latitude="42.26972" longitude="-88.31559"/>
		<city name="Culver City"	state="California"	latitude="33.99633" longitude="-118.41468"/>
		<city name="Cupertino"		state="California"	latitude="37.50825" longitude="-122.24036"/>
		<city name="Cuyahoga Falls"	state="Ohio"		latitude="41.13853" longitude="-81.47889"/>
		<city name="Cypress"		state="California"	latitude="33.81743" longitude="-118.03486"/>
		<city name="Dahlgren"		state="Virginia"	latitude="38.33945" longitude="-77.03669"/>
		<city name="Dallas"		state="Texas"		latitude="33.28348" longitude="-96.19265"/>
		<city name="Dalton"		state="Georgia"		latitude="35.84587" longitude="-89.30642"/>
		<city name="Damascus"		state="Maryland"	latitude="39.27798" longitude="-77.20733"/>
		<city name="Danbury"		state="Connecticut"	latitude="41.40275" longitude="-73.45871"/>
		<city name="Danvers"		state="Massachusetts"	latitude="42.54495" longitude="-70.91559"/>
		<city name="Danville"		state="Arkansas"	latitude="36.42936" longitude="-107.67523"/>
		<city name="Darien"		state="Connecticut"	latitude="36.22844" longitude="-77.45504"/>
		<city name="Davenport"		state="Iowa"		latitude="37.99816" longitude="-97.99817"/>
		<city name="Davie"		state="Florida"		latitude="26.09449" longitude="-80.23486"/>
		<city name="Davis"		state="California"	latitude="38.54862" longitude="-121.74495"/>
		<city name="Dayton"		state="Ohio"		latitude="39.52568" longitude="-85.88807"/>
		<city name="Daytona Beach"	state="Florida"		latitude="29.18807" longitude="-81.02201"/>
		<city name="De Kalb"		state="Illinois"	latitude="41.92844" longitude="-88.75596"/>
		<city name="Dearborn"		state="Michigan"	latitude="42.31100" longitude="-83.21284"/>
		<city name="Decatur"		state="Georgia"		latitude="36.58348" longitude="-90.11009"/>
		<city name="Deer Island"	state="Oregon"		latitude="45.93853" longitude="-122.89541"/>
		<city name="Deerfield"		state="Illinois"	latitude="42.16238" longitude="-87.90825"/>
		<city name="Deerfield Beach"	state="Florida"		latitude="26.30917" longitude="-80.11926"/>
		<city name="Deering"		state="New Hampshire"	latitude="43.11743" longitude="-71.89541"/>
		<city name="Defiance"		state="Ohio"		latitude="41.27890" longitude="-84.35779"/>
		<city name="Del Mar"		state="California"	latitude="32.96972" longitude="-117.23669"/>
		<city name="Deleon"		state="Texas"		latitude="32.10825" longitude="-98.54862"/>
		<city name="Delray Beach"	state="Florida"		latitude="26.45779" longitude="-80.09174"/>
		<city name="Deltona"		state="Florida"		latitude="28.89908" longitude="-81.24770"/>
		<city name="Denison"		state="Texas"		latitude="33.73761" longitude="-96.54495"/>
		<city name="Denton"		state="Texas"		latitude="33.22844" longitude="-97.12844"/>
		<city name="Denver"		state="Colorado"	latitude="39.60825" longitude="-104.53761"/>
		<city name="Denville"		state="New Jersey"	latitude="40.88807" longitude="-74.47706"/>
		<city name="Depere"		state="Wisconsin"	latitude="44.43853" longitude="-88.07889"/>
		<city name="Des Moines"		state="Iowa"		latitude="41.59055" longitude="-93.60350"/>
		<city name="Des Plaines"	state="Illinois"	latitude="40.68990" longitude="-91.26055"/>
		<city name="Destin"		state="Florida"		latitude="30.39908" longitude="-86.47706"/>
		<city name="Detroit"		state="Michigan"	latitude="42.45137" longitude="-83.10825"/>
		<city name="Detroit Lakes"	state="Minnesota"	latitude="46.82752" longitude="-95.79633"/>
		<city name="Devens"		state="Massachusetts"	latitude="42.55871" longitude="-71.57615"/>
		<city name="Devils Lake"	state="North Dakota"	latitude="48.10733" longitude="-98.85688"/>
		<city name="Dexter"		state="Michigan"	latitude="42.35780" longitude="-83.89541"/>
		<city name="Diamond Bar"	state="California"	latitude="34.00734" longitude="-117.80917"/>
		<city name="Dillsboro"		state="Indiana" 	latitude="39.00000" longitude="-85.04586"/>
		<city name="Dixon"		state="California"	latitude="38.45779" longitude="-121.81651"/>
		<city name="Dobbs Ferry"	state="New York"	latitude="41.00917" longitude="-73.86605"/>
		<city name="Dothan"		state="Alabama" 	latitude="31.25779" longitude="-85.40917"/>
		<city name="Dover"		state="New Hampshire"	latitude="41.07798" longitude="-73.65688"/>
		<city name="Downers Grove"	state="Illinois"	latitude="41.79908" longitude="-88.00734"/>
		<city name="Downey"		state="California"	latitude="33.91926" longitude="-118.13945"/>
		<city name="Doylestown"		state="Pennsylvania"	latitude="40.64312" longitude="-78.40183"/>
		<city name="Draper"		state="Utah"		latitude="40.50000" longitude="-111.87523"/>
		<city name="Duarte"		state="California"	latitude="34.13945" longitude="-117.96881"/>
		<city name="Dublin"		state="Ohio"		latitude="38.43303" longitude="-106.26605"/>
		<city name="Dubuque"		state="Iowa"		latitude="42.51743" longitude="-90.67706"/>
		<city name="Dulles"		state="Virginia"	latitude="37.99816" longitude="-97.99817"/>
		<city name="Duluth"		state="Georgia"		latitude="39.58624" longitude="-91.41468"/>
		<city name="Dumont"		state="New Jersey"	latitude="40.93761" longitude="-73.98716"/>
		<city name="Dundee"		state="Illinois"	latitude="42.02477" longitude="-85.96514"/>
		<city name="Dunedin"		state="Florida"		latitude="28.02935" longitude="-82.77798"/>
		<city name="Dunn Loring"	state="Virginia"	latitude="38.89816" longitude="-77.21834"/>
		<city name="Durango"		state="Colorado"	latitude="37.28807" longitude="-107.85688"/>
		<city name="Durant"		state="Oklahoma"	latitude="34.00734" longitude="-96.37981"/>
		<city name="Durham"		state="New Hampshire"	latitude="38.33394" longitude="-76.26605"/>
		<city name="Duyrea"		state="Pennsylvania"	latitude="41.34770" longitude="-75.75963"/>
		<city name="Dyer"		state="Indiana" 	latitude="41.48807" longitude="-87.50642"/>
		<city name="Dyersburg"		state="Tennessee"	latitude="36.03853" longitude="-89.37798"/>
		<city name="Eagan"		state="Minnesota"	latitude="44.81834" longitude="-93.18164"/>
		<city name="Eagle River"	state="Wisconsin"	latitude="45.91926" longitude="-89.24587"/>
		<city name="Easley"		state="South Carolina"	latitude="34.95963" longitude="-82.55780"/>
		<city name="East Berlin"	state="Connecticut"	latitude="41.60917" longitude="-72.71560"/>
		<city name="East Brunswick"	state="New Jersey"	latitude="40.42844" longitude="-74.40550"/>
		<city name="East Greenbush"	state="New York"	latitude="42.59724" longitude="-73.67890"/>
		<city name="East Hanover"	state="New Jersey"	latitude="40.81926" longitude="-74.35596"/>
		<city name="East Hartford"	state="Connecticut"	latitude="41.79358" longitude="-72.43486"/>
		<city name="East Haven"		state="Connecticut"	latitude="41.27890" longitude="-72.86972"/>
		<city name="East Hills"		state="New York"	latitude="40.80825" longitude="-73.62935"/>
		<city name="East Lansing"	state="Michigan"	latitude="42.73761" longitude="-84.47889"/>
		<city name="East Norriton"	state="Pennsylvania"	latitude="40.11743" longitude="-75.32476"/>
		<city name="East Peoria"	state="Illinois"	latitude="40.66789" longitude="-89.54862"/>
		<city name="East Providence"	state="Rhode Island"	latitude="41.80734" longitude="-71.36697"/>
		<city name="East Rutherford"	state="New Jersey"	latitude="40.83853" longitude="-74.09724"/>
		<city name="East Stroudsburg"	state="Pennsylvania"	latitude="41.00000" longitude="-75.17770"/>
		<city name="East Setauket"	state="New York"	latitude="40.92936" longitude="-73.09541"/>
		<city name="East Syracuse"	state="New York"	latitude="43.06789" longitude="-76.05687"/>
		<city name="East Wenatchee"	state="Washington"	latitude="47.41926" longitude="-120.26972"/>
		<city name="East Windsor"	state="Connecticut"	latitude="41.90917" longitude="-72.59449"/>
		<city name="Eastland"		state="Texas"		latitude="32.40000" longitude="-98.80734"/>
		<city name="Easton"		state="Maryland"	latitude="38.77981" longitude="-76.07889"/>
		<city name="Eau Claire"		state="Wisconsin"	latitude="44.77981" longitude="-91.48623"/>
		<city name="Edelstein"		state="Illinois"	latitude="40.94862" longitude="-89.58715"/>
		<city name="Eden Prairie"	state="Minnesota"	latitude="44.85963" longitude="-93.43486"/>
		<city name="Edina"		state="Minnesota"	latitude="44.93394" longitude="-93.58899"/>
		<city name="Edinburg"		state="Virginia"	latitude="32.56789" longitude="-88.37614"/>
		<city name="Edison"		state="New Jersey"	latitude="40.53577" longitude="-74.34495"/>
		<city name="Edmond"		state="Oklahoma"	latitude="35.64495" longitude="-97.46972"/>
		<city name="Edwards AFB"	state="California"	latitude="34.92936" longitude="-117.91926"/>
		<city name="Edwardsville"	state="Illinois"	latitude="38.80734" longitude="-89.95596"/>
		<city name="Egg Harbor"	state="New Jersey"	latitude="37.99816" longitude="-97.99817"/>
		<city name="Eglin AFB"		state="Florida"		latitude="30.47890" longitude="-86.61467"/>
		<city name="Eguene"		state="Oregon"		latitude="44.03944" longitude="-123.05504"/>
		<city name="El Campo"		state="Texas"		latitude="29.19908" longitude="-96.26972"/>
		<city name="El Centro"		state="California"	latitude="32.78807" longitude="-115.56881"/>
		<city name="El Dorado Hills"	state="California"	latitude="38.68899" longitude="-121.13945"/>
		<city name="El Monte"		state="California"	latitude="34.07890" longitude="-118.03486"/>
		<city name="El Paso"		state="Texas"		latitude="31.80550" longitude="-106.49724"/>
		<city name="El Segundo"		state="California"	latitude="33.91926" longitude="-118.40917"/>
		<city name="Elberton"		state="Georgia"		latitude="34.10917" longitude="-82.83853"/>
		<city name="Elburn"		state="Illinois"	latitude="41.87890" longitude="-88.45871"/>
		<city name="Eldorado Hills"	state="California"	latitude="37.99816" longitude="-97.99817"/>
		<city name="Elgin"		state="Texas"		latitude="36.17889" longitude="-92.81284"/>
		<city name="Elizabethtown"	state="Kentucky"	latitude="37.70917" longitude="-85.85505"/>
		<city name="Elk City"		state="Oklahoma"	latitude="35.40825" longitude="-99.41835"/>
		<city name="Elkhart"		state="Indiana" 	latitude="41.70825" longitude="-85.96514"/>
		<city name="Ellensburg"		state="Washington"	latitude="46.99816" longitude="-120.51743"/>
		<city name="Ellenwood"		state="Georgia"		latitude="33.63853" longitude="-84.25871"/>
		<city name="Ellicott City"	state="Maryland"	latitude="39.26972" longitude="-76.85505"/>
		<city name="Ellijay"		state="Georgia"		latitude="34.67889" longitude="-84.47889"/>
		<city name="Ellsworth"		state="Maine"		latitude="44.54862" longitude="-68.40550"/>
		<city name="Elmhurst"		state="Illinois"	latitude="41.88990" longitude="-87.93578"/>
		<city name="Elmira"		state="New York"	latitude="42.09908" longitude="-76.80550"/>
		<city name="Elmsford"		state="New York"	latitude="41.05871" longitude="-73.80550"/>
		<city name="Elmwood Park"	state="Illinois"	latitude="41.91743" longitude="-87.80917"/>
		<city name="Elyria"		state="Ohio"		latitude="41.36972" longitude="-82.10642"/>
		<city name="Emeryville"		state="California"	latitude="37.83853" longitude="-122.27890"/>
		<city name="Encinitas"		state="California"	latitude="33.04660" longitude="-117.29800"/>
		<city name="Encino"		state="California"	latitude="34.15871" longitude="-118.50275"/>
		<city name="Endicott"		state="New York"	latitude="42.10733" longitude="-76.05687"/>
		<city name="Enfield"		state="Connecticut"	latitude="41.98899" longitude="-72.56697"/>
		<city name="Englewood"		state="Colorado"	latitude="37.33761" longitude="-94.21651"/>
		<city name="Englewood Cliffs"	state="New Jersey"	latitude="40.87981" longitude="-73.94862"/>
		<city name="Enid"		state="Oklahoma"	latitude="36.39908" longitude="-97.85505"/>
		<city name="Enumclaw"		state="Washington"	latitude="47.26789" longitude="-122.02568"/>
		<city name="Ephrata"		state="Pennsylvania"	latitude="43.72844" longitude="-97.84954"/>
		<city name="Equality"		state="Illinois"	latitude="37.72844" longitude="-88.33761"/>
		<city name="Erdenheim"		state="Pennsylvania"	latitude="40.10917" longitude="-75.14862"/>
		<city name="Erie"		state="Pennsylvania"	latitude="42.11284" longitude="-80.12477"/>
		<city name="Escondido"		state="California"	latitude="33.10733" longitude="-117.06605"/>
		<city name="Etna"		state="New Hampshire"	latitude="42.58899" longitude="-97.55780"/>
		<city name="Eugene"		state="Oregon"		latitude="42.76789" longitude="-118.87156"/>
		<city name="Euless"		state="Texas"		latitude="32.82935" longitude="-97.09541"/>
		<city name="Eureka"		state="California"	latitude="40.77798" longitude="-124.15596"/>
		<city name="Evanston"		state="Illinois"	latitude="41.65321" longitude="-99.32476"/>
		<city name="Evansville"		state="Indiana" 	latitude="37.98165" longitude="-87.53945"/>
		<city name="Everett"		state="Washington"	latitude="47.96422" longitude="-122.20733"/>
		<city name="Evergreen"		state="Colorado"	latitude="39.63853" longitude="-105.33577"/>
		<city name="Everly"		state="Iowa"		latitude="43.15871" longitude="-95.31743"/>
		<city name="Ewing"		state="New Jersey"	latitude="40.25229" longitude="-74.80183"/>
		<city name="Exeter"		state="Pennsylvania"	latitude="41.33945" longitude="-75.81468"/>
		<city name="Exton"		state="Pennsylvania"	latitude="40.04862" longitude="-75.63853"/>
		<city name="Fair Lawn"		state="New Jersey"	latitude="40.92936" longitude="-74.11926"/>
		<city name="Fairbanks"		state="Alaska"		latitude="51.41835" longitude="-122.85138"/>
		<city name="Fairfax"		state="Virginia"	latitude="38.67798" longitude="-81.41284"/>
		<city name="Fairfield"		state="California"	latitude="39.63578" longitude="-100.92110"/>
		<city name="Fairhope"		state="Alabama" 	latitude="30.49816" longitude="-87.87523"/>
		<city name="Fairmont"		state="West Virginia"	latitude="39.29725" longitude="-80.23486"/>
		<city name="Fairport"		state="New York"	latitude="43.08991" longitude="-77.43853"/>
		<city name="Fairview Heights"	state="Illinois"	latitude="38.59816" longitude="-90.00550"/>
		<city name="Falcon AFB"		state="Colorado"	latitude="37.99816" longitude="-97.99817"/>
		<city name="Fall River"		state="Massachusetts"	latitude="41.68899" longitude="-71.15780"/>
		<city name="Fallbrook"		state="California"	latitude="33.36881" longitude="-117.22568"/>
		<city name="Fallon"		state="Nevada"		latitude="39.02752" longitude="-104.34495"/>
		<city name="Falls Church"	state="Virginia"	latitude="38.87615" longitude="-77.17431"/>
		<city name="Falmouth"		state="Maine"		latitude="43.72844" longitude="-70.25504"/>
		<city name="Fargo"		state="North Dakota"	latitude="46.87982" longitude="-96.79816"/>
		<city name="Farmers Branch"	state="Texas"		latitude="32.92844" longitude="-96.87523"/>
		<city name="Farmington"		state="New Hampshire"	latitude="40.60733" longitude="-84.03302"/>
		<city name="Farmington Hills"	state="Michigan"	latitude="42.50917" longitude="-83.37798"/>
		<city name="Fayette City"	state="Pennsylvania"	latitude="40.09816" longitude="-79.83853"/>
		<city name="Fayetteville"	state="Arkansas"	latitude="35.38623" longitude="-83.96147"/>
		<city name="Federal Way"	state="Washington"	latitude="47.31743" longitude="-122.30642"/>
		<city name="Fenton"		state="Missouri"	latitude="38.49908" longitude="-90.46788"/>
		<city name="Fern Park"		state="Florida"		latitude="28.64862" longitude="-81.33577"/>
		<city name="Filer"		state="Idaho"		latitude="42.56972" longitude="-114.60550"/>
		<city name="Findlay"		state="Ohio"		latitude="41.03944" longitude="-83.64770"/>
		<city name="Fishers"		state="Indiana" 	latitude="39.95779" longitude="-86.01468"/>
		<city name="Flagstaff"		state="Arizona" 	latitude="35.20734" longitude="-111.61100"/>
		<city name="Flemingon"		state="New Jersey"	latitude="40.51926" longitude="-74.84587"/>
		<city name="Flint"		state="Michigan"	latitude="42.99633" longitude="-83.71376"/>
		<city name="Floral Park"	state="New York"	latitude="40.71743" longitude="-73.70642"/>
		<city name="Florence"		state="South Carolina"	latitude="34.17798" longitude="-79.76697"/>
		<city name="Florham Park"	state="New Jersey"	latitude="40.77798" longitude="-74.38899"/>
		<city name="Florianopolis"	state="South Carolina"	latitude="35.40275" longitude="-103.23853"/>
		<city name="Floyd"		state="Virginia"	latitude="36.91926" longitude="-80.31743"/>
		<city name="Flushing"		state="New York"	latitude="40.74495" longitude="-73.82752"/>
		<city name="Foley"		state="Alabama" 	latitude="30.39908" longitude="-87.68807"/>
		<city name="Folsom"		state="California"	latitude="38.61743" longitude="-121.44220"/>
		<city name="Fond Du Lac"	state="Wisconsin"	latitude="43.78899" longitude="-88.47522"/>
		<city name="Foothill Ranch"	state="California"	latitude="33.66880" longitude="-117.65504"/>
		<city name="Fordland"		state="Missouri"	latitude="37.13945" longitude="-92.90642"/>
		<city name="Forest"		state="Virginia"	latitude="37.33761" longitude="-79.27706"/>
		<city name="Forest Hill"	state="Maryland"	latitude="39.57798" longitude="-76.39816"/>
		<city name="Foresthill"		state="California"	latitude="39.00000" longitude="-120.85872"/>
		<city name="Fort Belvoir"	state="Virginia"	latitude="38.68899" longitude="-77.13578"/>
		<city name="Fort Bragg"		state="North Carolina"	latitude="35.13853" longitude="-78.99633"/>
		<city name="Fort Collins"	state="Colorado"	latitude="40.05137" longitude="-103.66238"/>
		<city name="Fort Detrick"	state="Maryland"	latitude="39.43761" longitude="-77.44954"/>
		<city name="Fort Dodge"		state="Iowa"		latitude="42.50917" longitude="-94.17798"/>
		<city name="Fort Huachuca"	state="Arizona" 	latitude="31.54954" longitude="-110.30092"/>
		<city name="Fort Lauderdale"	state="Florida"		latitude="26.13027" longitude="-80.16330"/>
		<city name="Fort Leavenworth"	state="Kansas"		latitude="39.34954" longitude="-94.92660"/>
		<city name="Fort Lee"		state="Virginia"	latitude="39.04403" longitude="-75.64954"/>
		<city name="Fort Lewis"		state="Washington"	latitude="47.09724" longitude="-122.57615"/>
		<city name="Fort Mcpherson"	state="Georgia"		latitude="33.70734" longitude="-84.42936"/>
		<city name="Fort Meade"		state="Maryland"	latitude="39.10733" longitude="-76.73945"/>
		<city name="Fort Mill"		state="South Carolina"	latitude="36.51468" longitude="-89.47706"/>
		<city name="Fort Monmouth"	state="New Jersey"	latitude="40.31834" longitude="-74.03669"/>
		<city name="Fort Myers"		state="Florida"		latitude="26.55137" longitude="-81.81468"/>
		<city name="Fort Ritchie"	state="Maryland"	latitude="39.70734" longitude="-77.49908"/>
		<city name="Fort Shafter"	state="Hawaii"		latitude="37.99816" longitude="-97.99817"/>
		<city name="Fort Smith"		state="Arkansas"	latitude="35.35321" longitude="-94.39266"/>
		<city name="Fort Stockton"	state="Texas"		latitude="30.88899" longitude="-102.87523"/>
		<city name="Fort Washington"	state="Pennsylvania"	latitude="40.13945" longitude="-75.19816"/>
		<city name="Fort Wayne"		state="Indiana" 	latitude="41.10275" longitude="-85.17247"/>
		<city name="Fort Worth"		state="Texas"		latitude="33.65780" longitude="-97.37064"/>
		<city name="Foster City"	state="California"	latitude="37.54954" longitude="-122.25688"/>
		<city name="Fountain Valley"	state="California"	latitude="33.70734" longitude="-117.94679"/>
		<city name="Foxton"		state="Colorado"	latitude="39.36880" longitude="-105.24770"/>
		<city name="Fpo Miami"		state="Florida"		latitude="37.99816" longitude="-97.99817"/>
		<city name="Fpo New York"	state="New York"	latitude="37.99816" longitude="-97.99817"/>
		<city name="Framingham"		state="Massachusetts"	latitude="42.29725" longitude="-71.42752"/>
		<city name="Frankfort"		state="Kentucky"	latitude="38.18807" longitude="-84.87523"/>
		<city name="Franklin"		state="North Carolina"	latitude="37.73119" longitude="-80.55963"/>
		<city name="Franklin Lakes"	state="New Jersey"	latitude="41.00917" longitude="-74.20733"/>
		<city name="Frazer"		state="Pennsylvania"	latitude="40.03761" longitude="-75.52844"/>
		<city name="Frederick"		state="Maryland"	latitude="38.94770" longitude="-84.28073"/>
		<city name="Fredericksburg"	state="Virginia"	latitude="34.28807" longitude="-88.17798"/>
		<city name="Freehold"		state="New Jersey"	latitude="40.24954" longitude="-74.27890"/>
		<city name="Freeport"		state="Illinois"	latitude="41.47431" longitude="-81.60550"/>
		<city name="Fremont"		state="California"	latitude="38.52385" longitude="-115.62385"/>
		<city name="Fresno"		state="California"	latitude="36.77064" longitude="-119.76330"/>
		<city name="Friday Harbor"	state="Washington"	latitude="48.54770" longitude="-123.08807"/>
		<city name="Fridley"		state="Minnesota"	latitude="45.09908" longitude="-93.24770"/>
		<city name="Friendswood"	state="Texas"		latitude="29.51835" longitude="-95.18531"/>
		<city name="Frisco"		state="Texas"		latitude="33.14862" longitude="-96.81468"/>
		<city name="Frmingham"		state="Massachusetts"	latitude="37.99816" longitude="-97.99817"/>
		<city name="Frostburg"		state="Maryland"	latitude="39.64954" longitude="-78.92477"/>
		<city name="Ft Belvoir"		state="Virginia"	latitude="38.68899" longitude="-77.13578"/>
		<city name="Ft Collins"		state="Colorado"	latitude="40.53853" longitude="-105.04953"/>
		<city name="Ft Huachuca"	state="Arizona" 	latitude="31.55779" longitude="-110.33944"/>
		<city name="Ft Knox"		state="Kentucky"	latitude="37.88807" longitude="-85.94862"/>
		<city name="Ft Lauderdale"	state="Florida"		latitude="27.61651" longitude="-82.39816"/>
		<city name="Ft Myers"		state="Florida"		latitude="26.56789" longitude="-81.78715"/>
		<city name="Ft Worth"		state="Texas"		latitude="32.72202" longitude="-97.19449"/>
		<city name="Fullerton"		state="California"	latitude="35.93945" longitude="-107.94495"/>
		<city name="Gadsden"		state="Alabama" 	latitude="33.99908" longitude="-86.00917"/>
		<city name="Gahanna"		state="Ohio"		latitude="40.03761" longitude="-82.87706"/>
		<city name="Gainesville"	state="Florida"		latitude="30.59449" longitude="-82.62935"/>
		<city name="Gaithersburg"	state="Maryland"	latitude="39.14312" longitude="-77.20183"/>
		<city name="Galesburg"		state="Illinois"	latitude="40.94862" longitude="-90.36880"/>
		<city name="Galveston"		state="Texas"		latitude="37.99816" longitude="-97.99817"/>
		<city name="Ganado"		state="Texas"		latitude="29.02844" longitude="-96.49541"/>
		<city name="Garden City"	state="New York"	latitude="39.34954" longitude="-87.25321"/>
		<city name="Garden Grove"	state="California"	latitude="33.78990" longitude="-117.92477"/>
		<city name="Garland"		state="Texas"		latitude="32.87890" longitude="-96.63853"/>
		<city name="Gary"		state="Indiana"		latitude="41.60208" longitude="-87.33714"/>
		<city name="Gastonia"		state="North Carolina"	latitude="35.19908" longitude="-81.14862"/>
		<city name="Gate City"		state="Virginia"	latitude="36.64954" longitude="-82.60733"/>
		<city name="Gaylord"		state="Michigan"	latitude="45.00825" longitude="-84.66605"/>
		<city name="Geneseo"		state="Illinois"	latitude="41.46880" longitude="-90.16513"/>
		<city name="Geneva"		state="Illinois"	latitude="41.88990" longitude="-88.30458"/>
		<city name="Georgetown"		state="Kentucky"	latitude="34.41743" longitude="-91.11192"/>
		<city name="Gering"		state="Nebraska"	latitude="41.81834" longitude="-103.65688"/>
		<city name="Germantown"		state="Maryland"	latitude="39.16513" longitude="-83.10825"/>
		<city name="Gettysburg"		state="Pennsylvania"	latitude="39.82844" longitude="-77.21834"/>
		<city name="Getzville"		state="New York"	latitude="43.01835" longitude="-78.74862"/>
		<city name="Gibbsboro"		state="New Jersey"	latitude="39.83945" longitude="-74.96697"/>
		<city name="Gibsonia"		state="Pennsylvania"	latitude="40.62935" longitude="-79.93761"/>
		<city name="Gig Harbor"		state="Washington"	latitude="47.32844" longitude="-122.60366"/>
		<city name="Gilbert"		state="Arizona" 	latitude="33.34954" longitude="-111.77614"/>
		<city name="Gillette"		state="Wyoming" 	latitude="44.27890" longitude="-105.49541"/>
		<city name="Gilroy"		state="California"	latitude="37.01835" longitude="-121.57982"/>
		<city name="Girard"		state="Ohio"		latitude="39.33302" longitude="-87.77064"/>
		<city name="Gladstone"		state="Missouri"	latitude="39.20917" longitude="-94.56881"/>
		<city name="Gladwin"		state="Michigan"	latitude="44.02844" longitude="-84.49541"/>
		<city name="Glen Allen"		state="Virginia"	latitude="37.65963" longitude="-77.52660"/>
		<city name="Glen Ellyn"		state="Illinois"	latitude="41.86789" longitude="-88.05687"/>
		<city name="Glen Ridge"		state="New Jersey"	latitude="40.80825" longitude="-74.21834"/>
		<city name="Glen Rock"		state="New Jersey"	latitude="40.95963" longitude="-74.12477"/>
		<city name="Glendale"		state="California"	latitude="33.97156" longitude="-116.23486"/>
		<city name="Glendora"		state="California"	latitude="34.12844" longitude="-117.85872"/>
		<city name="Glens Falls"	state="New York"	latitude="43.30734" longitude="-73.64587"/>
		<city name="Glenside"		state="Pennsylvania"	latitude="40.10917" longitude="-75.14862"/>
		<city name="Glenview"		state="Illinois"	latitude="42.07981" longitude="-87.81468"/>
		<city name="Glenwood"		state="Maryland"	latitude="39.27798" longitude="-77.00917"/>
		<city name="Glenwood Springs"	state="Colorado"	latitude="39.52844" longitude="-107.32843"/>
		<city name="Gloucester"		state="Virginia"	latitude="37.41743" longitude="-76.54679"/>
		<city name="Gloucester Point"	state="Virginia"	latitude="37.25779" longitude="-76.49724"/>
		<city name="Golden"		state="Colorado"	latitude="39.92477" longitude="-98.10825"/>
		<city name="Goldsboro"		state="North Carolina"	latitude="35.37798" longitude="-78.01651"/>
		<city name="Gonzales"		state="Louisiana"	latitude="29.87890" longitude="-94.18348"/>
		<city name="Goodlettsville"	state="Tennessee"	latitude="36.33853" longitude="-86.71927"/>
		<city name="Goshen"		state="New York"	latitude="40.32110" longitude="-86.05320"/>
		<city name="Grafton"		state="Illinois"	latitude="39.00000" longitude="-90.42936"/>
		<city name="Graham"		state="Texas"		latitude="33.09908" longitude="-98.57615"/>
		<city name="Granada Hills"	state="California"	latitude="34.27981" longitude="-118.49724"/>
		<city name="Grand Blanc"	state="Michigan"	latitude="42.92752" longitude="-83.62568"/>
		<city name="Grand Haven"	state="Michigan"	latitude="43.03761" longitude="-86.18531"/>
		<city name="Grand Junction"	state="Colorado"	latitude="39.07981" longitude="-108.54495"/>
		<city name="Grand Rapids"	state="Michigan"	latitude="42.23669" longitude="-87.41284"/>
		<city name="Grand Terrace"	state="California"	latitude="34.05963" longitude="-117.31926"/>
		<city name="Grandville"		state="Michigan"	latitude="42.88899" longitude="-85.75596"/>
		<city name="Grants Pass"	state="Oregon"		latitude="42.42936" longitude="-123.34678"/>
		<city name="Granville"		state="Ohio"		latitude="40.07890" longitude="-82.51926"/>
		<city name="Grapevine"		state="Texas"		latitude="32.92844" longitude="-97.09541"/>
		<city name="Grass Valley"	state="California"	latitude="38.60917" longitude="-121.81651"/>
		<city name="Grawn"		state="Michigan"	latitude="44.63945" longitude="-85.70642"/>
		<city name="Great Falls"	state="Montana" 	latitude="47.50458" longitude="-111.28624"/>
		<city name="Great Lakes"	state="Illinois"	latitude="42.29725" longitude="-87.85872"/>
		<city name="Great Neck"		state="New York"	latitude="40.79725" longitude="-73.72844"/>
		<city name="Greeley"		state="Colorado"	latitude="40.40917" longitude="-104.69725"/>
		<city name="Green Bay"		state="Wisconsin"	latitude="44.50734" longitude="-88.02935"/>
		<city name="Green Brook"	state="New Jersey"	latitude="40.58807" longitude="-74.46605"/>
		<city name="Greenbelt"		state="Maryland"	latitude="39.12935" longitude="-76.83853"/>
		<city name="Greeneville"	state="Tennessee"	latitude="36.15963" longitude="-82.82752"/>
		<city name="Greenfield"		state="Massachusetts"	latitude="37.99816" longitude="-97.99817"/>
		<city name="Greensboro"		state="North Carolina"	latitude="36.08257" longitude="-79.84954"/>
		<city name="Greensburg"		state="Pennsylvania"	latitude="40.30734" longitude="-79.53578"/>
		<city name="Greenvale"		state="New York"	latitude="40.80825" longitude="-73.62935"/>
		<city name="Greenville"		state="South Carolina"	latitude="34.26605" longitude="-84.21467"/>
		<city name="Greenwich"		state="Connecticut"	latitude="41.03944" longitude="-73.64036"/>
		<city name="Greenwood"		state="South Carolina"	latitude="34.70917" longitude="-88.19999"/>
		<city name="Greenwood Village"	state="Colorado"	latitude="19.80275" longitude="-52.43670"/>
		<city name="Gresham"		state="Oregon"		latitude="45.47890" longitude="-122.41651"/>
		<city name="Gretna"		state="Louisiana"	latitude="29.90917" longitude="-90.04953"/>
		<city name="Griffiss AFB"	state="New York"	latitude="37.99816" longitude="-97.99817"/>
		<city name="Griffith"		state="Indiana" 	latitude="41.52935" longitude="-87.41835"/>
		<city name="Grinnell"		state="Iowa"		latitude="41.73853" longitude="-92.72477"/>
		<city name="Groton"		state="Connecticut"	latitude="40.25229" longitude="-80.71376"/>
		<city name="Grove City"		state="Pennsylvania"	latitude="41.15780" longitude="-80.07522"/>
		<city name="Gunnison"		state="Colorado"	latitude="38.54862" longitude="-106.92660"/>
		<city name="Gunter AFB"		state="Alabama" 	latitude="37.99816" longitude="-97.99999"/>
		<city name="Gurnee"		state="Illinois"	latitude="42.36880" longitude="-87.94679"/>
		<city name="Guymon"		state="Oklahoma"	latitude="36.69908" longitude="-101.47706"/>
		<city name="Hackensack"		state="New Jersey"	latitude="40.88807" longitude="-74.04770"/>
		<city name="Hackettstown"	state="New Jersey"	latitude="40.84954" longitude="-74.82936"/>
		<city name="Haddonfield"	state="New Jersey"	latitude="39.90000" longitude="-75.03852"/>
		<city name="Hadley"		state="Massachusetts"	latitude="42.35780" longitude="-72.56697"/>
		<city name="Hagerstown"		state="Maryland"	latitude="39.64403" longitude="-77.71376"/>
		<city name="Hailey"		state="Idaho"		latitude="43.51926" longitude="-114.30825"/>
		<city name="Half Moon Bay"	state="California"	latitude="37.47798" longitude="-122.44954"/>
		<city name="Hallandale"		state="Florida"		latitude="25.98990" longitude="-80.13578"/>
		<city name="Halstad"		state="Minnesota"	latitude="47.35871" longitude="-96.79816"/>
		<city name="Hamburg"		state="New Jersey"	latitude="41.14954" longitude="-74.58715"/>
		<city name="Hamel"		state="Illinois"	latitude="38.87890" longitude="-89.86789"/>
		<city name="Hamilton"		state="Texas"		latitude="32.91468" longitude="-93.05504"/>
		<city name="Hammond"		state="Louisiana"	latitude="34.20550" longitude="-89.48807"/>
		<city name="Hampton"		state="Virginia"	latitude="37.03486" longitude="-76.31559"/>
		<city name="Hancock"		state="Michigan"	latitude="47.13853" longitude="-88.56881"/>
		<city name="Hanford"		state="California"	latitude="36.31926" longitude="-119.47706"/>
		<city name="Hannibal"		state="Missouri"	latitude="39.70734" longitude="-91.37614"/>
		<city name="Hanover"		state="Maryland"	latitude="41.42752" longitude="-74.49908"/>
		<city name="Hanscom AFB"	state="Massachusetts"	latitude="37.99816" longitude="-97.99817"/>
		<city name="Harahan"		state="Louisiana"	latitude="29.94770" longitude="-90.20917"/>
		<city name="Harlingen"		state="Texas"		latitude="26.19908" longitude="-97.68991"/>
		<city name="Harold"		state="Kentucky"	latitude="37.50000" longitude="-82.61834"/>
		<city name="Harrisburg"		state="Pennsylvania"	latitude="39.72385" longitude="-82.13945"/>
		<city name="Harrison"		state="New York"	latitude="40.96789" longitude="-73.71743"/>
		<city name="Harrisonburg"	state="Virginia"	latitude="38.22385" longitude="-88.43119"/>
		<city name="Hartford"		state="Connecticut"	latitude="42.04954" longitude="-76.84954"/>
		<city name="Hartsdale"		state="New York"	latitude="41.01743" longitude="-73.80550"/>
		<city name="Harvey"		state="Illinois"	latitude="41.60917" longitude="-87.65504"/>
		<city name="Hattiesburg"	state="Mississippi"	latitude="31.30734" longitude="-89.30642"/>
		<city name="Hauppauge"		state="New York"	latitude="40.81926" longitude="-73.19449"/>
		<city name="Haverhill"		state="Massachusetts"	latitude="42.78990" longitude="-71.06972"/>
		<city name="Hawkinsville"	state="Georgia"		latitude="32.27890" longitude="-83.48807"/>
		<city name="Hawthorne"		state="California"	latitude="37.50275" longitude="-96.07155"/>
		<city name="Hawthorne"		state="New Jersey"	latitude="40.99000" longitude="-74.16000"/>
		<city name="Hayden"		state="Idaho"		latitude="47.76880" longitude="-116.77981"/>
		<city name="Hayward"		state="California"	latitude="37.64587" longitude="-122.08623"/>
		<city name="Hazelwood"		state="Missouri"	latitude="38.77981" longitude="-90.36880"/>
		<city name="Heathrow"		state="Florida"		latitude="28.74770" longitude="-81.33577"/>
		<city name="Hebron"		state="Indiana" 	latitude="41.31743" longitude="-87.20917"/>
		<city name="Helena"		state="Montana" 	latitude="46.60733" longitude="-112.01835"/>
		<city name="Henderson"		state="Texas"		latitude="32.14954" longitude="-94.78899"/>
		<city name="Hendersonville"	state="Tennessee"	latitude="36.30825" longitude="-86.60917"/>
		<city name="Hercules"		state="California"	latitude="38.06972" longitude="-122.15780"/>
		<city name="Hermitage"		state="Tennessee"	latitude="36.17889" longitude="-86.59816"/>
		<city name="Herndando"		state="Florida"		latitude="37.99816" longitude="-97.99817"/>
		<city name="Herndon"		state="Virginia"	latitude="38.89266" longitude="-80.64770"/>
		<city name="Hershey"		state="Pennsylvania"	latitude="40.25779" longitude="-76.64587"/>
		<city name="Hesperia"		state="California"	latitude="34.41743" longitude="-117.29725"/>
		<city name="Hewlett"		state="New York"	latitude="40.63761" longitude="-73.69541"/>
		<city name="Hiawatha"		state="Iowa"		latitude="42.03853" longitude="-91.67890"/>
		<city name="Hickam AFB"		state="Hawaii"		latitude="37.99816" longitude="-97.99817"/>
		<city name="Hickory"		state="North Carolina"	latitude="37.21926" longitude="-81.22568"/>
		<city name="Hicksville"		state="New York"	latitude="40.75871" longitude="-73.51926"/>
		<city name="High Point"		state="North Carolina"	latitude="35.97798" longitude="-80.00367"/>
		<city name="Highland Heights"	state="Kentucky"	latitude="40.28807" longitude="-82.95963"/>
		<city name="Highland Hts"	state="Ohio"		latitude="41.54862" longitude="-81.47889"/>
		<city name="Highland Park"	state="Illinois"	latitude="42.17889" longitude="-87.80917"/>
		<city name="Highlands Ranch"	state="Colorado"	latitude="39.54770" longitude="-104.95596"/>
		<city name="Hightstown"		state="New Jersey"	latitude="40.26880" longitude="-74.52660"/>
		<city name="Hill AFB"		state="Utah"		latitude="41.11926" longitude="-111.99633"/>
		<city name="Hilliard"		state="Ohio"		latitude="39.98257" longitude="-83.05320"/>
		<city name="Hillsboro"		state="Oregon"		latitude="42.34403" longitude="-106.22201"/>
		<city name="Hillsdale"		state="Michigan"	latitude="41.91743" longitude="-84.61651"/>
		<city name="Hillside"		state="New Jersey"	latitude="40.69816" longitude="-74.22935"/>
		<city name="Hilo"		state="Hawaii"		latitude="19.69816" longitude="-155.08624"/>
		<city name="Hilton Head"	state="South Carolina"	latitude="35.07798" longitude="-89.37798"/>
		<city name="Hingham"		state="Massachusetts"	latitude="42.21743" longitude="-70.88807"/>
		<city name="Hinsdale"		state="Illinois"	latitude="41.78807" longitude="-87.93578"/>
		<city name="Hixson"		state="Tennessee"	latitude="35.15780" longitude="-85.21651"/>
		<city name="Hoboken"		state="New Jersey"	latitude="40.73945" longitude="-74.02568"/>
		<city name="Hoffman Estates"	state="Illinois"	latitude="42.05229" longitude="-88.10642"/>
		<city name="Ho-Ho-Kus"		state="New Jersey"	latitude="40.95963" longitude="-74.12477"/>
		<city name="Holland"		state="Michigan"	latitude="42.39908" longitude="-85.32660"/>
		<city name="Hollis"		state="New Hampshire"	latitude="42.74862" longitude="-71.57615"/>
		<city name="Hollis Hills"	state="New York"	latitude="40.72844" longitude="-73.74495"/>
		<city name="Hollister"		state="California"	latitude="36.84770" longitude="-121.38715"/>
		<city name="Holly"		state="Michigan"	latitude="42.78990" longitude="-83.60917"/>
		<city name="Hollywood"		state="Florida"		latitude="30.01926" longitude="-99.26422"/>
		<city name="Holmdel"		state="New Jersey"	latitude="40.38990" longitude="-74.16880"/>
		<city name="Holtsville"		state="New York"	latitude="40.80825" longitude="-73.03486"/>
		<city name="Holyoke"		state="Massachusetts"	latitude="42.19816" longitude="-72.62752"/>
		<city name="Home"		state="Kansas"		latitude="39.84770" longitude="-96.52844"/>
		<city name="Homestead"		state="Florida"		latitude="25.47798" longitude="-80.47706"/>
		<city name="Homewood"		state="Illinois"	latitude="41.55963" longitude="-87.65504"/>
		<city name="Honaker"		state="Virginia"	latitude="37.02935" longitude="-81.99633"/>
		<city name="Honolulu"		state="Hawaii"		latitude="24.64954" longitude="-145.87156"/>
		<city name="Hood River"		state="Oregon"		latitude="45.66880" longitude="-121.53578"/>
		<city name="Hoosick Falls"	state="New York"	latitude="42.88899" longitude="-73.35963"/>
		<city name="Hoover"		state="Alabama" 	latitude="33.36880" longitude="-86.77981"/>
		<city name="Hopewell Junction"	state="New York"	latitude="41.57890" longitude="-73.80000"/>
		<city name="Hopkins"		state="Minnesota"	latitude="44.92844" longitude="-93.41835"/>
		<city name="Hopkinsville"	state="Kentucky"	latitude="36.85871" longitude="-87.48990"/>
		<city name="Hopkinton"		state="Massachusetts"	latitude="42.21743" longitude="-71.52660"/>
		<city name="Hornell"		state="New York"	latitude="42.32752" longitude="-77.65871"/>
		<city name="Horseheads"		state="New York"	latitude="42.17889" longitude="-76.82752"/>
		<city name="Horsham"		state="Pennsylvania"	latitude="40.17798" longitude="-75.14862"/>
		<city name="Hot Springs"	state="Arkansas"	latitude="34.50000" longitude="-93.02752"/>
		<city name="Houma"		state="Louisiana"	latitude="29.60917" longitude="-90.73761"/>
		<city name="Houston"		state="Texas"		latitude="29.95871" longitude="-95.51559"/>
		<city name="Howell"		state="Michigan"	latitude="42.61926" longitude="-83.91743"/>
		<city name="Hudson"		state="Wisconsin"	latitude="42.87247" longitude="-81.90825"/>
		<city name="Humboldt"		state="Tennessee"	latitude="35.83761" longitude="-88.90458"/>
		<city name="Hunt Valley"	state="Maryland"	latitude="39.48440" longitude="-76.64036"/>
		<city name="Huntersville"	state="North Carolina"	latitude="35.41926" longitude="-80.85688"/>
		<city name="Huntington"		state="West Virginia"	latitude="38.40825" longitude="-82.43670"/>
		<city name="Huntington Beach"	state="California"	latitude="35.14403" longitude="-111.34678"/>
		<city name="Huntsville"		state="Alabama" 	latitude="34.70917" longitude="-86.64220"/>
		<city name="Hurst"		state="Texas"		latitude="32.85963" longitude="-97.17798"/>
		<city name="Hverford"		state="Pennsylvania"	latitude="40.00734" longitude="-75.30825"/>
		<city name="Hyannis"		state="Massachusetts"	latitude="41.64770" longitude="-70.29908"/>
		<city name="Idaho Falls"	state="Idaho"		latitude="41.89541" longitude="-108.93027"/>
		<city name="Incline Village"	state="Nevada"		latitude="39.25871" longitude="-119.94495"/>
		<city name="Independence"	state="Ohio"		latitude="39.18990" longitude="-91.55780"/>
		<city name="Indian Head"	state="Maryland"	latitude="38.58990" longitude="-77.14679"/>
		<city name="Indian Wells"	state="California"	latitude="33.71835" longitude="-116.33944"/>
		<city name="Indiana"		state="Pennsylvania"	latitude="40.61834" longitude="-79.15596"/>
		<city name="Indianapolis"	state="Indiana" 	latitude="39.83669" longitude="-86.14679"/>
		<city name="Industry"		state="California"	latitude="33.97981" longitude="-117.89724"/>
		<city name="Inglewood"		state="California"	latitude="33.96880" longitude="-118.34862"/>
		<city name="Ingram"		state="Texas"		latitude="30.06880" longitude="-99.26972"/>
		<city name="Iowa City"		state="Iowa"		latitude="40.43394" longitude="-93.67156"/>
		<city name="Ipswich"		state="Massachusetts"	latitude="42.67981" longitude="-70.84954"/>
		<city name="Irondale"		state="Alabama" 	latitude="33.52844" longitude="-86.68624"/>
		<city name="Irvine"		state="California"	latitude="35.11100" longitude="-111.20366"/>
		<city name="Irving"		state="Texas"		latitude="32.88165" longitude="-96.96881"/>
		<city name="Irvington"		state="New York"	latitude="41.03944" longitude="-73.85505"/>
		<city name="Irvington-on-Hudson" state="New York"	latitude="41.03944" longitude="-73.85505"/>
		<city name="Irwin"		state="Pennsylvania"	latitude="40.31834" longitude="-79.71743"/>
		<city name="Irwindale"		state="California"	latitude="34.07890" longitude="-117.96881"/>
		<city name="Irwinton"		state="Georgia"		latitude="32.80734" longitude="-83.16880"/>
		<city name="Iselin"		state="New Jersey"	latitude="40.56880" longitude="-74.31743"/>
		<city name="Island Heights"	state="New Jersey"	latitude="39.93853" longitude="-74.14679"/>
		<city name="Islandia"		state="New York"	latitude="37.99816" longitude="-97.99817"/>
		<city name="Issaquah"		state="Washington"	latitude="47.54862" longitude="-122.02568"/>
		<city name="Itasca"		state="Illinois"	latitude="41.96422" longitude="-87.99633"/>
		<city name="Ithaca"		state="New York"	latitude="42.44312" longitude="-76.48623"/>
		<city name="Ivyland"		state="Pennsylvania"	latitude="40.20825" longitude="-75.08807"/>
		<city name="Jackson"		state="Mississippi"	latitude="35.79908" longitude="-92.08623"/>
		<city name="Jacksonville"	state="Florida"		latitude="30.26146" longitude="-81.59999"/>
		<city name="Jamaica"		state="New York"	latitude="40.64862" longitude="-73.77798"/>
		<city name="Jamesburg"		state="New Jersey"	latitude="40.33761" longitude="-74.42752"/>
		<city name="Janesville"		state="Wisconsin"	latitude="42.68807" longitude="-89.02568"/>
		<city name="Jefferson Valley"	state="New York"	latitude="41.33945" longitude="-73.78899"/>
		<city name="Jeffersonville"	state="Indiana" 	latitude="38.30917" longitude="-85.73945"/>
		<city name="Jenkintown"		state="Pennsylvania"	latitude="40.09816" longitude="-75.11559"/>
		<city name="Jericho"		state="New York"	latitude="40.78899" longitude="-73.52477"/>
		<city name="Jersey City"	state="New Jersey"	latitude="40.72569" longitude="-74.05320"/>
		<city name="Johnson City"	state="New York"	latitude="42.12935" longitude="-75.96881"/>
		<city name="Johnston"		state="Iowa"		latitude="41.74954" longitude="-82.59633"/>
		<city name="Johnstown"		state="New York"	latitude="41.65871" longitude="-76.65137"/>
		<city name="Jonesboro"		state="Arkansas"	latitude="35.78257" longitude="-91.01835"/>
		<city name="Joplin"		state="Missouri"	latitude="37.07339" longitude="-94.50825"/>
		<city name="Juneau"		state="Alaska"		latitude="48.17889" longitude="-116.26238"/>
		<city name="Jupiter"		state="Florida"		latitude="26.91743" longitude="-80.07522"/>
		<city name="Kailua"		state="Hawaii"		latitude="21.40734" longitude="-157.73945"/>
		<city name="Kailua-kona"	state="Hawaii"		latitude="19.64862" longitude="-155.97798"/>
		<city name="Kalama"		state="Washington"	latitude="46.00734" longitude="-122.81835"/>
		<city name="Kalamazoo"		state="Michigan"	latitude="42.27798" longitude="-85.60733"/>
		<city name="Kamas"		state="Utah"		latitude="40.63761" longitude="-111.25871"/>
		<city name="Kanab"		state="Utah"		latitude="37.06789" longitude="-112.34862"/>
		<city name="Kansas City"	state="Missouri"	latitude="39.03027" longitude="-94.77247"/>
		<city name="Kaplan"		state="Louisiana"	latitude="29.97798" longitude="-92.29541"/>
		<city name="Kapolei"		state="Hawaii"		latitude="21.34954" longitude="-158.08624"/>
		<city name="Kaysville"		state="Utah"		latitude="41.03944" longitude="-111.92477"/>
		<city name="Kearney"		state="Nebraska"	latitude="40.70917" longitude="-99.07706"/>
		<city name="Keene"		state="New Hampshire"	latitude="37.99816" longitude="-97.99817"/>
		<city name="Keller"		state="Texas"		latitude="32.92844" longitude="-97.24954"/>
		<city name="Kelly AFB"		state="Texas"		latitude="29.38899" longitude="-98.57615"/>
		<city name="Kenmore"		state="New York"	latitude="42.96880" longitude="-78.86972"/>
		<city name="Kennebunk"		state="Maine"		latitude="43.38990" longitude="-70.54679"/>
		<city name="Kennedy Space Center" state="Florida"	latitude="37.99816" longitude="-97.99817"/>
		<city name="Kennesaw"		state="Georgia"		latitude="34.02935" longitude="-84.59449"/>
		<city name="Kennett Square"	state="Pennsylvania"	latitude="39.84770" longitude="-75.69908"/>
		<city name="Kennewick"		state="Washington"	latitude="46.20825" longitude="-119.16880"/>
		<city name="Kent"		state="Ohio"		latitude="37.99816" longitude="-97.99817"/>
		<city name="Kentwood"		state="Michigan"	latitude="42.88899" longitude="-85.57982"/>
		<city name="Keokuk"		state="Iowa"		latitude="40.40917" longitude="-91.39816"/>
		<city name="Kerrville"		state="Texas"		latitude="30.03853" longitude="-99.13761"/>
		<city name="Ketchum"		state="Idaho"		latitude="43.67889" longitude="-114.36880"/>
		<city name="Kettering"		state="Ohio"		latitude="39.70734" longitude="-84.07706"/>
		<city name="Kew Gardens"	state="New York"	latitude="40.66789" longitude="-73.74495"/>
		<city name="Key West"		state="Florida"		latitude="24.56972" longitude="-81.75963"/>
		<city name="Keyport"		state="Washington"	latitude="37.99816" longitude="-97.99817"/>
		<city name="Kihei"		state="Hawaii"		latitude="20.73853" longitude="-156.44587"/>
		<city name="Killeen"		state="Texas"		latitude="31.10917" longitude="-97.70092"/>
		<city name="King of Prussia"	state="Pennsylvania"	latitude="40.09816" longitude="-75.24220"/>
		<city name="Kingfisher"		state="Oklahoma"	latitude="35.85963" longitude="-97.94862"/>
		<city name="Kingman"		state="Arizona" 	latitude="35.25963" longitude="-114.05504"/>
		<city name="Kingsport"		state="Tennessee"	latitude="36.51743" longitude="-82.51926"/>
		<city name="Kingston"		state="New York"	latitude="41.70275" longitude="-72.77064"/>
		<city name="Kingstree"		state="South Carolina"	latitude="33.68807" longitude="-79.77798"/>
		<city name="Kingwood"		state="Texas"		latitude="30.05779" longitude="-95.20733"/>
		<city name="Kinston"		state="North Carolina"	latitude="35.27890" longitude="-77.58715"/>
		<city name="Kirkland"		state="Washington"	latitude="47.71651" longitude="-122.20183"/>
		<city name="Kirtland AFB"	state="New Mexico"	latitude="37.99999" longitude="-99.99999"/>
		<city name="Kissimmee"		state="Florida"		latitude="28.30734" longitude="-81.41835"/>
		<city name="Klamath Falls"	state="Oregon"		latitude="42.22844" longitude="-121.78899"/>
		<city name="Knoxville"		state="Tennessee"	latitude="35.95321" longitude="-84.01100"/>
		<city name="Kutztown"		state="Pennsylvania"	latitude="40.51926" longitude="-75.77614"/>
		<city name="La Crosse"		state="Wisconsin"	latitude="43.79725" longitude="-91.21651"/>
		<city name="La Grande"		state="Oregon"		latitude="45.32752" longitude="-118.08990"/>
		<city name="La Jolla"		state="California"	latitude="35.42477" longitude="-107.62018"/>
		<city name="La Porte"		state="Indiana" 	latitude="41.59816" longitude="-86.70826"/>
		<city name="La Vergne"		state="Tennessee"	latitude="36.00825" longitude="-86.55963"/>
		<city name="La Verne"		state="California"	latitude="34.11743" longitude="-117.76513"/>
		<city name="Lacey"		state="Washington"	latitude="47.01743" longitude="-122.77981"/>
		<city name="Lacrosse"		state="Wisconsin"	latitude="43.79725" longitude="-91.21651"/>
		<city name="Ladson"		state="South Carolina"	latitude="32.98899" longitude="-80.12477"/>
		<city name="Lafayette"		state="Indiana" 	latitude="35.60917" longitude="-96.72660"/>
		<city name="Lagrange"		state="North Carolina"	latitude="35.30917" longitude="-77.76880"/>
		<city name="Laguna Beach"	state="California"	latitude="33.53944" longitude="-117.76513"/>
		<city name="Laguna Hills"	state="California"	latitude="33.59724" longitude="-117.70459"/>
		<city name="Laguna Niguel"	state="California"	latitude="33.51743" longitude="-117.70459"/>
		<city name="Laie"		state="Hawaii"		latitude="21.65780" longitude="-157.93762"/>
		<city name="Lake Buena Vista"	state="Florida"		latitude="28.36789" longitude="-81.51743"/>
		<city name="Lake Charles"	state="Louisiana"	latitude="30.19816" longitude="-93.20366"/>
		<city name="Lake City"		state="Florida"		latitude="30.16789" longitude="-82.65688"/>
		<city name="Lake Clarke Shores"	state="Florida"		latitude="26.65871" longitude="-80.08623"/>
		<city name="Lake Elsinore"	state="California"	latitude="33.65780" longitude="-117.34678"/>
		<city name="Lake Forest"	state="California"	latitude="33.63853" longitude="-117.68807"/>
		<city name="Lake Geneva"	state="Wisconsin"	latitude="42.58899" longitude="-88.45871"/>
		<city name="Lake Havasu City"	state="Arizona" 	latitude="34.48899" longitude="-114.30825"/>
		<city name="Lake In The Hills"	state="Illinois"	latitude="42.16789" longitude="-88.29908"/>
		<city name="Lake Jackson"	state="Texas"		latitude="29.03945" longitude="-95.43853"/>
		<city name="Lake Katrine"	state="New York"	latitude="41.98899" longitude="-73.98716"/>
		<city name="Lake Mary"		state="Florida"		latitude="28.74770" longitude="-81.33577"/>
		<city name="Lake Success"	state="New York"	latitude="40.75871" longitude="-73.68991"/>
		<city name="Lake Worth"		state="Florida"		latitude="26.60917" longitude="-80.16880"/>
		<city name="Lakeland"		state="Florida"		latitude="28.03761" longitude="-81.93578"/>
		<city name="Lakeside"		state="Oregon"		latitude="43.57981" longitude="-124.15596"/>
		<city name="Lakewood"		state="Colorado"	latitude="40.13669" longitude="-94.24954"/>
		<city name="Lambertville"	state="New Jersey"	latitude="40.36789" longitude="-74.92844"/>
		<city name="Lancaster"		state="California"	latitude="37.27981" longitude="-98.77981"/>
		<city name="Langhorne"		state="Pennsylvania"	latitude="40.17798" longitude="-74.91743"/>
		<city name="Langley"		state="Washington"	latitude="48.01926" longitude="-122.44954"/>
		<city name="Langley AFB"	state="Virginia"	latitude="37.09816" longitude="-76.40917"/>
		<city name="Lanham"		state="Maryland"	latitude="38.96972" longitude="-76.85505"/>
		<city name="Lansdale"		state="Pennsylvania"	latitude="40.23853" longitude="-75.29725"/>
		<city name="Lansing"		state="Michigan"	latitude="41.16330" longitude="-89.03669"/>
		<city name="Lapwai"		state="Idaho"		latitude="46.40917" longitude="-116.78532"/>
		<city name="Laramie"		state="Wyoming" 	latitude="41.55963" longitude="-105.81468"/>
		<city name="Laredo"		state="Texas"		latitude="27.51743" longitude="-99.49541"/>
		<city name="Large"		state="Pennsylvania"	latitude="40.29908" longitude="-79.90458"/>
		<city name="Largo"		state="Florida"		latitude="31.26330" longitude="-87.83670"/>
		<city name="Larkspur"		state="California"	latitude="37.93761" longitude="-122.53761"/>
		<city name="Larose"		state="Louisiana"	latitude="37.99816" longitude="-97.99817"/>
		<city name="Las Cruces"		state="New Mexico"	latitude="32.31743" longitude="-106.74495"/>
		<city name="Las Vegas"		state="Nevada"		latitude="36.34403" longitude="-113.37798"/>
		<city name="Latham"		state="New York"	latitude="42.74862" longitude="-73.75596"/>
		<city name="Lathrup Village"	state="Michigan"	latitude="42.49816" longitude="-83.22935"/>
		<city name="Latrobe"		state="Pennsylvania"	latitude="40.28807" longitude="-79.40917"/>
		<city name="Lauderdale"		state="Minnesota"	latitude="45.00825" longitude="-93.14862"/>
		<city name="Laurel"		state="Maryland"	latitude="37.62110" longitude="-79.29908"/>
		<city name="Laurence Harbor"	state="New Jersey"	latitude="40.45871" longitude="-74.27890"/>
		<city name="Laurens"		state="South Carolina"	latitude="34.50000" longitude="-82.02935"/>
		<city name="Laurie"		state="Missouri"	latitude="37.99816" longitude="-97.99817"/>
		<city name="Lavergne"		state="Tennessee"	latitude="36.00825" longitude="-86.55963"/>
		<city name="Lawrence"		state="Kansas"		latitude="38.95871" longitude="-95.23486"/>
		<city name="Lawrenceville"	state="Georgia"		latitude="36.06880" longitude="-80.93394"/>
		<city name="Lawton"		state="Oklahoma"	latitude="34.60458" longitude="-98.41101"/>
		<city name="Leavenworth"	state="Kansas"		latitude="39.29725" longitude="-94.92660"/>
		<city name="Leawood"		state="Kansas"		latitude="38.89816" longitude="-94.62935"/>
		<city name="Lebanon"		state="Tennessee"	latitude="39.75963" longitude="-82.63486"/>
		<city name="Leesburg"		state="Georgia"		latitude="35.40000" longitude="-80.86239"/>
		<city name="Leesville"		state="Louisiana"	latitude="31.13945" longitude="-93.21467"/>
		<city name="Lee's Summit"		state="Missouri"	latitude="38.9225" longitude="-94.374"/>
		<city name="Lehi"		state="Utah"		latitude="40.39816" longitude="-111.84771"/>
		<city name="Leland"		state="Mississippi"	latitude="33.40734" longitude="-90.88623"/>
		<city name="Lemoore"		state="California"	latitude="36.30825" longitude="-119.82936"/>
		<city name="Lenexa"		state="Kansas"		latitude="38.95871" longitude="-94.73945"/>
		<city name="Lennox"		state="Georgia"		latitude="31.72844" longitude="-83.91743"/>
		<city name="Lenora"		state="Kansas"		latitude="39.60825" longitude="-99.99633"/>
		<city name="Leonia"		state="New Jersey"	latitude="40.85780" longitude="-73.98716"/>
		<city name="Levelland"		state="Texas"		latitude="33.57798" longitude="-102.36880"/>
		<city name="Levittown"		state="Pennsylvania"	latitude="40.16972" longitude="-74.81835"/>
		<city name="Lewis Center"	state="Ohio"		latitude="37.99816" longitude="-97.99817"/>
		<city name="Lewiston"		state="Maine"		latitude="45.24495" longitude="-93.58899"/>
		<city name="Lewistown"		state="Pennsylvania"	latitude="40.59908" longitude="-77.57615"/>
		<city name="Lewisville"		state="Texas"		latitude="33.04954" longitude="-96.99633"/>
		<city name="Lexington"		state="South Carolina"	latitude="37.84954" longitude="-82.33210"/>
		<city name="Libby"		state="Montana" 	latitude="48.37981" longitude="-115.53578"/>
		<city name="Liberal"		state="Kansas"		latitude="37.03761" longitude="-100.92660"/>
		<city name="Liberty Corner"	state="New Jersey"	latitude="37.99816" longitude="-97.99817"/>
		<city name="Liberty Lake"	state="Washington"	latitude="47.64770" longitude="-117.07706"/>
		<city name="Libertyville"	state="Illinois"	latitude="42.27798" longitude="-87.94679"/>
		<city name="Lic"		state="New York"	latitude="37.99816" longitude="-97.99817"/>
		<city name="Ligoiner"		state="Indiana" 	latitude="41.46880" longitude="-85.58532"/>
		<city name="Lilburn"		state="Georgia"		latitude="33.86972" longitude="-84.11559"/>
		<city name="Lima"		state="Ohio"		latitude="40.75871" longitude="-84.09908"/>
		<city name="Lincoln"		state="Nebraska"	latitude="40.41743" longitude="-96.85321"/>
		<city name="Lincoln City"	state="Oregon"		latitude="44.96972" longitude="-123.99633"/>
		<city name="Lincoln University"	state="Pennsylvania"	latitude="39.77890" longitude="-75.87523"/>
		<city name="Lincolnshire"	state="Illinois"	latitude="42.18990" longitude="-87.89724"/>
		<city name="Lincolnwood"	state="Illinois"	latitude="37.99816" longitude="-97.99817"/>
		<city name="Lincroft"		state="New Jersey"	latitude="40.33761" longitude="-74.11926"/>
		<city name="Linden"		state="New Jersey"	latitude="40.63761" longitude="-74.25688"/>
		<city name="Lindon"		state="Utah"		latitude="40.33761" longitude="-111.70459"/>
		<city name="Linthicum"		state="Maryland"	latitude="39.20917" longitude="-76.65688"/>
		<city name="Lisbon"		state="Ohio"		latitude="40.75871" longitude="-80.75779"/>
		<city name="Lisle"		state="Illinois"	latitude="41.78807" longitude="-88.08990"/>
		<city name="Little Falls"	state="New Jersey"	latitude="40.88807" longitude="-74.20733"/>
		<city name="Little Rock"	state="Arkansas"	latitude="34.75045" longitude="-92.32843"/>
		<city name="Little Silver"	state="New Jersey"	latitude="40.33761" longitude="-74.03669"/>
		<city name="Littleton"		state="Colorado"	latitude="40.32935" longitude="-96.62752"/>
		<city name="Livermore"		state="California"	latitude="40.27431" longitude="-107.96147"/>
		<city name="Livingston"		state="New Jersey"	latitude="35.75229" longitude="-84.62752"/>
		<city name="Livonia"		state="Michigan"	latitude="42.39357" longitude="-83.35596"/>
		<city name="Lock Haven"		state="Pennsylvania"	latitude="41.13853" longitude="-77.43853"/>
		<city name="Lodi"		state="New Jersey"	latitude="40.98800" longitude="-74.15900"/>
		<city name="Logan"		state="Utah"		latitude="40.64312" longitude="-97.11192"/>
		<city name="Lombard"		state="Illinois"	latitude="41.86789" longitude="-88.01835"/>
		<city name="London"		state="Kentucky"	latitude="37.09816" longitude="-84.09908"/>
		<city name="Londonderry"	state="New Hampshire"	latitude="42.86972" longitude="-71.37798"/>
		<city name="Long Beach"		state="California"	latitude="33.78440" longitude="-118.17798"/>
		<city name="Long Grove"		state="Illinois"	latitude="42.19816" longitude="-88.06788"/>
		<city name="Long Island City"	state="New York"	latitude="40.75321" longitude="-73.93211"/>
		<city name="Longmont"		state="Colorado"	latitude="39.44587" longitude="-102.74862"/>
		<city name="Longview"		state="Washington"	latitude="35.91743" longitude="-101.79633"/>
		<city name="Longwood"		state="Florida"		latitude="28.70917" longitude="-81.35779"/>
		<city name="Los Alamitos"	state="California"	latitude="33.79816" longitude="-118.06788"/>
		<city name="Los Alamos"		state="New Mexico"	latitude="35.86789" longitude="-106.26605"/>
		<city name="Los Altos"		state="California"	latitude="37.42569" longitude="-122.17981"/>
		<city name="Los Altos Hills"	state="California"	latitude="37.37890" longitude="-122.12477"/>
		<city name="Los Angeles"	state="California"	latitude="34.05412" longitude="-118.32109"/>
		<city name="Los Gatos"		state="California"	latitude="37.22752" longitude="-121.94862"/>
		<city name="Louisville"		state="Kentucky"	latitude="38.32568" longitude="-87.94679"/>
		<city name="Loup City"		state="Nebraska"	latitude="41.27890" longitude="-98.97798"/>
		<city name="Loveland"		state="Colorado"	latitude="40.40367" longitude="-105.08807"/>
		<city name="Lovington"		state="New Mexico"	latitude="36.33302" longitude="-95.99450"/>
		<city name="Lowell"		state="Massachusetts"	latitude="41.06972" longitude="-76.98165"/>
		<city name="Lualualei"		state="Hawaii"		latitude="21.43761" longitude="-158.17981"/>
